[{"IE - Codigo modular":"0002212","IE - Nivel":"Secundaria","Cantidad_Proyectos":3,"IE - Nombre":"MANUEL ANTONIO MESONES MURO","IE - DRE":"Piura","IE - Latitud":-5.889155,"IE - Longitud":-79.538303},{"IE - Codigo modular":"0207373","IE - Nivel":"Secundaria","Cantidad_Proyectos":16,"IE - Nombre":"AGROPECUARIO","IE - DRE":"Cusco","IE - Latitud":-14.248781,"IE - Longitud":-71.237366},{"IE - Codigo modular":"0207381","IE - Nivel":"Secundaria","Cantidad_Proyectos":26,"IE - Nombre":"ALMIRANTE MIGUEL GRAU","IE - DRE":"Cusco","IE - Latitud":-14.0279,"IE - Longitud":-71.4538},{"IE - Codigo modular":"0207399","IE - Nivel":"Secundaria","Cantidad_Proyectos":23,"IE - Nombre":"103 INA ANTONIO RAYMONDI","IE - DRE":"Apurímac","IE - Latitud":-13.839696,"IE - Longitud":-72.428243},{"IE - Codigo modular":"0207407","IE - Nivel":"Secundaria","Cantidad_Proyectos":20,"IE - Nombre":"118","IE - DRE":"Cusco","IE - Latitud":-13.452179,"IE - Longitud":-72.2513},{"IE - Codigo modular":"0207449","IE - Nivel":"Secundaria","Cantidad_Proyectos":46,"IE - Nombre":"COMERCIO 41","IE - DRE":"Cusco","IE - Latitud":-13.52018,"IE - Longitud":-71.96443},{"IE - Codigo modular":"0207472","IE - Nivel":"Secundaria","Cantidad_Proyectos":41,"IE - Nombre":"CARLOS FERMIN FITZCARRALD","IE - DRE":"Madre de Dios","IE - Latitud":-12.591576,"IE - Longitud":-69.188401},{"IE - Codigo modular":"0207506","IE - Nivel":"Secundaria","Cantidad_Proyectos":23,"IE - Nombre":"NUESTRA SEÑORA DE LAS MERCEDES","IE - DRE":"Apurímac","IE - Latitud":-13.632446,"IE - Longitud":-72.889786},{"IE - Codigo modular":"0209189","IE - Nivel":"Secundaria","Cantidad_Proyectos":4,"IE - Nombre":"JORGE WASHINGTON","IE - DRE":"Callao","IE - Latitud":-12.062229,"IE - Longitud":-77.129098},{"IE - Codigo modular":"0209270","IE - Nivel":"Secundaria","Cantidad_Proyectos":19,"IE - Nombre":"LICEO NAVAL CAPITAN DE CORBETA MANUEL CLAVERO MUGA","IE - DRE":"Callao","IE - Latitud":-11.888391,"IE - Longitud":-77.128991},{"IE - Codigo modular":"0209304","IE - Nivel":"Secundaria","Cantidad_Proyectos":19,"IE - Nombre":"4001 DOS DE MAYO","IE - DRE":"Callao","IE - Latitud":-12.06411,"IE - Longitud":-77.15229},{"IE - Codigo modular":"0209387","IE - Nivel":"Secundaria","Cantidad_Proyectos":7,"IE - Nombre":"HEROINAS TOLEDO","IE - DRE":"Callao","IE - Latitud":-12.06186,"IE - Longitud":-77.13567},{"IE - Codigo modular":"0209510","IE - Nivel":"Secundaria","Cantidad_Proyectos":8,"IE - Nombre":"POLITECNICO NACIONAL DEL CALLAO","IE - DRE":"Callao","IE - Latitud":-12.044294,"IE - Longitud":-77.099361},{"IE - Codigo modular":"0209528","IE - Nivel":"Secundaria","Cantidad_Proyectos":13,"IE - Nombre":"JORGE BASADRE GROHMAN","IE - DRE":"Callao","IE - Latitud":-12.06236,"IE - Longitud":-77.13567},{"IE - Codigo modular":"0209536","IE - Nivel":"Secundaria","Cantidad_Proyectos":16,"IE - Nombre":"CALLAO","IE - DRE":"Callao","IE - Latitud":-12.06339,"IE - Longitud":-77.11831},{"IE - Codigo modular":"0209908","IE - Nivel":"Secundaria","Cantidad_Proyectos":42,"IE - Nombre":"GENERAL PRADO","IE - DRE":"Callao","IE - Latitud":-12.06422,"IE - Longitud":-77.11895},{"IE - Codigo modular":"0209916","IE - Nivel":"Secundaria","Cantidad_Proyectos":10,"IE - Nombre":"JOSE OLAYA BALANDRA","IE - DRE":"Callao","IE - Latitud":-12.06958,"IE - Longitud":-77.12678},{"IE - Codigo modular":"0209924","IE - Nivel":"Secundaria","Cantidad_Proyectos":28,"IE - Nombre":"DORA MAYER","IE - DRE":"Callao","IE - Latitud":-12.05706,"IE - Longitud":-77.09312},{"IE - Codigo modular":"0209940","IE - Nivel":"Secundaria","Cantidad_Proyectos":22,"IE - Nombre":"NUESTRA SEÑORA DE BELEN","IE - DRE":"Callao","IE - Latitud":-11.873055,"IE - Longitud":-77.119737},{"IE - Codigo modular":"0209965","IE - Nivel":"Secundaria","Cantidad_Proyectos":17,"IE - Nombre":"RAUL PORRAS BARRENECHEA","IE - DRE":"Callao","IE - Latitud":-12.04327,"IE - Longitud":-77.09718},{"IE - Codigo modular":"0209973","IE - Nivel":"Secundaria","Cantidad_Proyectos":8,"IE - Nombre":"MILITAR LEONCIO PRADO","IE - DRE":"Callao","IE - Latitud":-12.0754,"IE - Longitud":-77.1183},{"IE - Codigo modular":"0210302","IE - Nivel":"Secundaria","Cantidad_Proyectos":1,"IE - Nombre":"SAN ANTONIO MARIANISTAS","IE - DRE":"Callao","IE - Latitud":-12.0604,"IE - Longitud":-77.12556},{"IE - Codigo modular":"0210369","IE - Nivel":"Secundaria","Cantidad_Proyectos":1,"IE - Nombre":"MARIA AUXILIADORA","IE - DRE":"Callao","IE - Latitud":-12.05542,"IE - Longitud":-77.14148},{"IE - Codigo modular":"0210781","IE - Nivel":"Secundaria","Cantidad_Proyectos":24,"IE - Nombre":"JOSE MARIA ARGUEDAS","IE - DRE":"Ayacucho","IE - Latitud":-14.1156,"IE - Longitud":-73.6119},{"IE - Codigo modular":"0210799","IE - Nivel":"Secundaria","Cantidad_Proyectos":27,"IE - Nombre":"FELIPE GUAMAN POMA DE AYALA","IE - DRE":"Ayacucho","IE - Latitud":-14.00896,"IE - Longitud":-73.84004},{"IE - Codigo modular":"0214486","IE - Nivel":"Secundaria","Cantidad_Proyectos":2,"IE - Nombre":"80541 NUESTRA SEÑORA DEL MONTE CARMELO","IE - DRE":"La Libertad","IE - Latitud":-8.175592,"IE - Longitud":-77.974874},{"IE - Codigo modular":"0214494","IE - Nivel":"Secundaria","Cantidad_Proyectos":9,"IE - Nombre":"80542 JORGE BASADRE GROHMANN","IE - DRE":"La Libertad","IE - Latitud":-8.172767,"IE - Longitud":-77.956533},{"IE - Codigo modular":"0216200","IE - Nivel":"Secundaria","Cantidad_Proyectos":14,"IE - Nombre":"66","IE - DRE":"La Libertad","IE - Latitud":-7.23245,"IE - Longitud":-79.41509},{"IE - Codigo modular":"0216390","IE - Nivel":"Secundaria","Cantidad_Proyectos":21,"IE - Nombre":"SAN MARTIN DE PORRES","IE - DRE":"Tacna","IE - Latitud":-18.00211,"IE - Longitud":-70.24512},{"IE - Codigo modular":"0217281","IE - Nivel":"Secundaria","Cantidad_Proyectos":61,"IE - Nombre":"DANIEL HERNANDEZ","IE - DRE":"Huancavelica","IE - Latitud":-12.40057,"IE - Longitud":-74.866078},{"IE - Codigo modular":"0217299","IE - Nivel":"Secundaria","Cantidad_Proyectos":18,"IE - Nombre":"MARIA AUXILIADORA","IE - DRE":"Junín","IE - Latitud":-12.06654,"IE - Longitud":-75.21135},{"IE - Codigo modular":"0217760","IE - Nivel":"Secundaria","Cantidad_Proyectos":8,"IE - Nombre":"21502-1 RAUL PORRAS BARRENECHEA","IE - DRE":"Lima Provincias","IE - Latitud":-10.796779,"IE - Longitud":-76.877301},{"IE - Codigo modular":"0217778","IE - Nivel":"Secundaria","Cantidad_Proyectos":23,"IE - Nombre":"GABRIEL MORENO","IE - DRE":"Lima Provincias","IE - Latitud":-11.4702,"IE - Longitud":-76.62475},{"IE - Codigo modular":"0217950","IE - Nivel":"Secundaria","Cantidad_Proyectos":49,"IE - Nombre":"LIZARDO MONTERO","IE - DRE":"Piura","IE - Latitud":-4.63666,"IE - Longitud":-79.71272},{"IE - Codigo modular":"0228056","IE - Nivel":"Secundaria","Cantidad_Proyectos":15,"IE - Nombre":"JACANTAYA","IE - DRE":"Puno","IE - Latitud":-15.3052,"IE - Longitud":-69.6349},{"IE - Codigo modular":"0230052","IE - Nivel":"Secundaria","Cantidad_Proyectos":37,"IE - Nombre":"LA INMACULADA","IE - DRE":"Puno","IE - Latitud":-15.841857,"IE - Longitud":-70.023737},{"IE - Codigo modular":"0233056","IE - Nivel":"Secundaria","Cantidad_Proyectos":26,"IE - Nombre":"INCA GARCILASO DE LA VEGA","IE - DRE":"Cusco","IE - Latitud":-13.52069,"IE - Longitud":-71.96648},{"IE - Codigo modular":"0233064","IE - Nivel":"Secundaria","Cantidad_Proyectos":42,"IE - Nombre":"MIGUEL GRAU","IE - DRE":"Apurímac","IE - Latitud":-13.631085,"IE - Longitud":-72.881135},{"IE - Codigo modular":"0233098","IE - Nivel":"Secundaria","Cantidad_Proyectos":37,"IE - Nombre":"MANCO II","IE - DRE":"Cusco","IE - Latitud":-12.865258,"IE - Longitud":-72.692337},{"IE - Codigo modular":"0233106","IE - Nivel":"Secundaria","Cantidad_Proyectos":23,"IE - Nombre":"MARIANO SANTOS","IE - DRE":"Cusco","IE - Latitud":-13.68577,"IE - Longitud":-71.619837},{"IE - Codigo modular":"0233114","IE - Nivel":"Secundaria","Cantidad_Proyectos":25,"IE - Nombre":"HUMBERTO LUNA","IE - DRE":"Cusco","IE - Latitud":-13.32041,"IE - Longitud":-71.95621},{"IE - Codigo modular":"0233130","IE - Nivel":"Secundaria","Cantidad_Proyectos":35,"IE - Nombre":"50038 ALEJANDRO VELASCO ASTETE","IE - DRE":"Cusco","IE - Latitud":-13.5469,"IE - Longitud":-71.8886},{"IE - Codigo modular":"0233221","IE - Nivel":"Secundaria","Cantidad_Proyectos":60,"IE - Nombre":"LA CONVENCION","IE - DRE":"Cusco","IE - Latitud":-12.857625,"IE - Longitud":-72.693555},{"IE - Codigo modular":"0233239","IE - Nivel":"Secundaria","Cantidad_Proyectos":23,"IE - Nombre":"NUESTRA SEÑORA DEL CARMEN","IE - DRE":"Cusco","IE - Latitud":-13.688802,"IE - Longitud":-71.625695},{"IE - Codigo modular":"0233270","IE - Nivel":"Secundaria","Cantidad_Proyectos":56,"IE - Nombre":"52001 SANTA ROSA","IE - DRE":"Madre de Dios","IE - Latitud":-12.587535,"IE - Longitud":-69.202779},{"IE - Codigo modular":"0233288","IE - Nivel":"Secundaria","Cantidad_Proyectos":38,"IE - Nombre":"SANTA ROSA","IE - DRE":"Apurímac","IE - Latitud":-13.63765,"IE - Longitud":-72.88066},{"IE - Codigo modular":"0236109","IE - Nivel":"Secundaria","Cantidad_Proyectos":28,"IE - Nombre":"CLORINDA MATTO DE TURNER","IE - DRE":"Cusco","IE - Latitud":-13.51993,"IE - Longitud":-71.96984},{"IE - Codigo modular":"0236117","IE - Nivel":"Secundaria","Cantidad_Proyectos":20,"IE - Nombre":"GLORIOSO COLEGIO NACIONAL DE CIENCIAS","IE - DRE":"Cusco","IE - Latitud":-13.51907,"IE - Longitud":-71.98193},{"IE - Codigo modular":"0236158","IE - Nivel":"Secundaria","Cantidad_Proyectos":26,"IE - Nombre":"GENERAL OLLANTA","IE - DRE":"Cusco","IE - Latitud":-13.30134,"IE - Longitud":-72.11909},{"IE - Codigo modular":"0236174","IE - Nivel":"Secundaria","Cantidad_Proyectos":11,"IE - Nombre":"URIEL GARCIA","IE - DRE":"Cusco","IE - Latitud":-13.5343,"IE - Longitud":-71.9578},{"IE - Codigo modular":"0236182","IE - Nivel":"Secundaria","Cantidad_Proyectos":38,"IE - Nombre":"EMBLEMATICO GUILLERMO BILLINGHURST","IE - DRE":"Madre de Dios","IE - Latitud":-12.6005,"IE - Longitud":-69.1826},{"IE - Codigo modular":"0236190","IE - Nivel":"Secundaria","Cantidad_Proyectos":18,"IE - Nombre":"JUAN ESPINOZA MEDRANO","IE - DRE":"Apurímac","IE - Latitud":-13.662361,"IE - Longitud":-73.397171},{"IE - Codigo modular":"0236208","IE - Nivel":"Secundaria","Cantidad_Proyectos":35,"IE - Nombre":"LIBERTADORES DE AMERICA","IE - DRE":"Apurímac","IE - Latitud":-14.2929,"IE - Longitud":-73.2522},{"IE - Codigo modular":"0236216","IE - Nivel":"Secundaria","Cantidad_Proyectos":52,"IE - Nombre":"MATEO PUMACAHUA","IE - DRE":"Cusco","IE - Latitud":-14.262439,"IE - Longitud":-71.225737},{"IE - Codigo modular":"0236224","IE - Nivel":"Secundaria","Cantidad_Proyectos":44,"IE - Nombre":"50900 EDUCANDAS","IE - DRE":"Cusco","IE - Latitud":-13.51689,"IE - Longitud":-71.9821},{"IE - Codigo modular":"0236232","IE - Nivel":"Secundaria","Cantidad_Proyectos":14,"IE - Nombre":"50003 SANTA ROSA","IE - DRE":"Cusco","IE - Latitud":-13.52107,"IE - Longitud":-71.97748},{"IE - Codigo modular":"0236281","IE - Nivel":"Secundaria","Cantidad_Proyectos":16,"IE - Nombre":"VALLE SAGRADO","IE - DRE":"Cusco","IE - Latitud":-13.30909,"IE - Longitud":-72.11559},{"IE - Codigo modular":"0236323","IE - Nivel":"Secundaria","Cantidad_Proyectos":64,"IE - Nombre":"BELEN DE OSMA Y PARDO","IE - DRE":"Apurímac","IE - Latitud":-13.6567,"IE - Longitud":-73.3766},{"IE - Codigo modular":"0236331","IE - Nivel":"Secundaria","Cantidad_Proyectos":39,"IE - Nombre":"MARIA AUXILIADORA","IE - DRE":"Apurímac","IE - Latitud":-14.2922,"IE - Longitud":-73.2531},{"IE - Codigo modular":"0236349","IE - Nivel":"Secundaria","Cantidad_Proyectos":37,"IE - Nombre":"HUMBERTO LUNA","IE - DRE":"Cusco","IE - Latitud":-13.52399,"IE - Longitud":-71.97655},{"IE - Codigo modular":"0236356","IE - Nivel":"Secundaria","Cantidad_Proyectos":13,"IE - Nombre":"ROSA DE AMERICA","IE - DRE":"Cusco","IE - Latitud":-13.230973,"IE - Longitud":-70.754789},{"IE - Codigo modular":"0236364","IE - Nivel":"Secundaria","Cantidad_Proyectos":19,"IE - Nombre":"FORTUNATO L HERRERA","IE - DRE":"Cusco","IE - Latitud":-13.51971,"IE - Longitud":-71.97136},{"IE - Codigo modular":"0236372","IE - Nivel":"Secundaria","Cantidad_Proyectos":21,"IE - Nombre":"MICAELA BASTIDAS","IE - DRE":"Cusco","IE - Latitud":-12.96343,"IE - Longitud":-72.662258},{"IE - Codigo modular":"0236380","IE - Nivel":"Secundaria","Cantidad_Proyectos":22,"IE - Nombre":"JOSE CARLOS MARIATEGUI","IE - DRE":"Cusco","IE - Latitud":-13.0053,"IE - Longitud":-72.5522},{"IE - Codigo modular":"0236398","IE - Nivel":"Secundaria","Cantidad_Proyectos":13,"IE - Nombre":"JOSE MARIA ARGUEDAS","IE - DRE":"Cusco","IE - Latitud":-12.767,"IE - Longitud":-72.575},{"IE - Codigo modular":"0236406","IE - Nivel":"Secundaria","Cantidad_Proyectos":19,"IE - Nombre":"CESAR VALLEJO MENDOZA","IE - DRE":"Cusco","IE - Latitud":-13.603739,"IE - Longitud":-71.564547},{"IE - Codigo modular":"0236414","IE - Nivel":"Secundaria","Cantidad_Proyectos":40,"IE - Nombre":"DIEGO QUISPE TITO","IE - DRE":"Cusco","IE - Latitud":-13.52891,"IE - Longitud":-71.94019},{"IE - Codigo modular":"0236422","IE - Nivel":"Secundaria","Cantidad_Proyectos":51,"IE - Nombre":"AGUSTIN GAMARRA","IE - DRE":"Cusco","IE - Latitud":-13.46705,"IE - Longitud":-72.144418},{"IE - Codigo modular":"0236430","IE - Nivel":"Secundaria","Cantidad_Proyectos":54,"IE - Nombre":"TOMASA TTITO CONDEMAYTA","IE - DRE":"Cusco","IE - Latitud":-13.922,"IE - Longitud":-71.68},{"IE - Codigo modular":"0236448","IE - Nivel":"Secundaria","Cantidad_Proyectos":27,"IE - Nombre":"50178 BERNARDO TAMBOHUACSO","IE - DRE":"Cusco","IE - Latitud":-13.4214,"IE - Longitud":-71.8566},{"IE - Codigo modular":"0236455","IE - Nivel":"Secundaria","Cantidad_Proyectos":32,"IE - Nombre":"ERASMO DELGADO VIVANCO","IE - DRE":"Apurímac","IE - Latitud":-13.945881,"IE - Longitud":-72.174124},{"IE - Codigo modular":"0236463","IE - Nivel":"Secundaria","Cantidad_Proyectos":44,"IE - Nombre":"HERMANOS AYAR","IE - DRE":"Cusco","IE - Latitud":-13.7647,"IE - Longitud":-71.8434},{"IE - Codigo modular":"0236471","IE - Nivel":"Secundaria","Cantidad_Proyectos":39,"IE - Nombre":"JOSE PEREZ Y ARMENDARIZ","IE - DRE":"Cusco","IE - Latitud":-13.32213,"IE - Longitud":-71.59183},{"IE - Codigo modular":"0236489","IE - Nivel":"Secundaria","Cantidad_Proyectos":30,"IE - Nombre":"INKA TUPAQ YUPANQUI","IE - DRE":"Cusco","IE - Latitud":-13.398467,"IE - Longitud":-72.051357},{"IE - Codigo modular":"0236497","IE - Nivel":"Secundaria","Cantidad_Proyectos":56,"IE - Nombre":"DOS DE MAYO","IE - DRE":"Madre de Dios","IE - Latitud":-11.405154,"IE - Longitud":-69.488445},{"IE - Codigo modular":"0236521","IE - Nivel":"Secundaria","Cantidad_Proyectos":16,"IE - Nombre":"JUAN ANTONIO TRELLES CACERES","IE - DRE":"Apurímac","IE - Latitud":-13.644896,"IE - Longitud":-73.082323},{"IE - Codigo modular":"0236539","IE - Nivel":"Secundaria","Cantidad_Proyectos":17,"IE - Nombre":"DOS DE MAYO","IE - DRE":"Apurímac","IE - Latitud":-13.7577,"IE - Longitud":-73.5267},{"IE - Codigo modular":"0236570","IE - Nivel":"Secundaria","Cantidad_Proyectos":48,"IE - Nombre":"GREGORIO MARTINELLY","IE - DRE":"Apurímac","IE - Latitud":-13.658155,"IE - Longitud":-73.431153},{"IE - Codigo modular":"0236588","IE - Nivel":"Secundaria","Cantidad_Proyectos":16,"IE - Nombre":"JOSE CARLOS MARIATEGUI","IE - DRE":"Apurímac","IE - Latitud":-14.3615,"IE - Longitud":-72.882},{"IE - Codigo modular":"0236596","IE - Nivel":"Secundaria","Cantidad_Proyectos":11,"IE - Nombre":"ANTONIO RAYMONDI","IE - DRE":"Apurímac","IE - Latitud":-14.2208,"IE - Longitud":-73.0162},{"IE - Codigo modular":"0236604","IE - Nivel":"Secundaria","Cantidad_Proyectos":8,"IE - Nombre":"BENJAMIN HERENCIA ZEVALLOS","IE - DRE":"Apurímac","IE - Latitud":-13.96122,"IE - Longitud":-73.18844},{"IE - Codigo modular":"0236612","IE - Nivel":"Secundaria","Cantidad_Proyectos":21,"IE - Nombre":"JOSE MARIA ARGUEDAS","IE - DRE":"Apurímac","IE - Latitud":-14.1021,"IE - Longitud":-72.705},{"IE - Codigo modular":"0236620","IE - Nivel":"Secundaria","Cantidad_Proyectos":4,"IE - Nombre":"RAFAEL GRAU","IE - DRE":"Apurímac","IE - Latitud":-14.235872,"IE - Longitud":-72.584128},{"IE - Codigo modular":"0236638","IE - Nivel":"Secundaria","Cantidad_Proyectos":36,"IE - Nombre":"JERONIMO ZAVALA","IE - DRE":"Cusco","IE - Latitud":-14.0989,"IE - Longitud":-71.4341},{"IE - Codigo modular":"0236646","IE - Nivel":"Secundaria","Cantidad_Proyectos":48,"IE - Nombre":"CORONEL LADISLAO ESPINAR","IE - DRE":"Cusco","IE - Latitud":-14.788855,"IE - Longitud":-71.40696},{"IE - Codigo modular":"0236653","IE - Nivel":"Secundaria","Cantidad_Proyectos":62,"IE - Nombre":"JOSE GABRIEL CONDORCANQUI","IE - DRE":"Cusco","IE - Latitud":-14.2139,"IE - Longitud":-71.4324},{"IE - Codigo modular":"0236661","IE - Nivel":"Secundaria","Cantidad_Proyectos":58,"IE - Nombre":"SANTO TOMAS","IE - DRE":"Cusco","IE - Latitud":-14.45172,"IE - Longitud":-72.07877},{"IE - Codigo modular":"0236679","IE - Nivel":"Secundaria","Cantidad_Proyectos":16,"IE - Nombre":"SAN JOSE LA SALLE","IE - DRE":"Cusco","IE - Latitud":-13.554118,"IE - Longitud":-71.943905},{"IE - Codigo modular":"0236695","IE - Nivel":"Secundaria","Cantidad_Proyectos":19,"IE - Nombre":"SAN ANTONIO ABAD","IE - DRE":"Cusco","IE - Latitud":-13.5258,"IE - Longitud":-71.95018},{"IE - Codigo modular":"0236711","IE - Nivel":"Secundaria","Cantidad_Proyectos":19,"IE - Nombre":"SAN FRANCISCO DE ASIS","IE - DRE":"Cusco","IE - Latitud":-13.51825,"IE - Longitud":-71.9833},{"IE - Codigo modular":"0236729","IE - Nivel":"Secundaria","Cantidad_Proyectos":7,"IE - Nombre":"LA MERCED","IE - DRE":"Cusco","IE - Latitud":-13.51851,"IE - Longitud":-71.97872},{"IE - Codigo modular":"0236737","IE - Nivel":"Secundaria","Cantidad_Proyectos":15,"IE - Nombre":"MARIA AUXILIADORA","IE - DRE":"Cusco","IE - Latitud":-13.5145,"IE - Longitud":-71.97758},{"IE - Codigo modular":"0236745","IE - Nivel":"Secundaria","Cantidad_Proyectos":12,"IE - Nombre":"EL CARMELO","IE - DRE":"Cusco","IE - Latitud":-13.51544,"IE - Longitud":-71.97453},{"IE - Codigo modular":"0236752","IE - Nivel":"Secundaria","Cantidad_Proyectos":11,"IE - Nombre":"SANTA ANA","IE - DRE":"Cusco","IE - Latitud":-13.52877,"IE - Longitud":-71.94901},{"IE - Codigo modular":"0236760","IE - Nivel":"Secundaria","Cantidad_Proyectos":11,"IE - Nombre":"LAS MERCEDES","IE - DRE":"Cusco","IE - Latitud":-13.52034,"IE - Longitud":-71.97633},{"IE - Codigo modular":"0236778","IE - Nivel":"Secundaria","Cantidad_Proyectos":10,"IE - Nombre":"FE Y ALEGRIA 20","IE - DRE":"Cusco","IE - Latitud":-13.52713,"IE - Longitud":-71.98197},{"IE - Codigo modular":"0236786","IE - Nivel":"Secundaria","Cantidad_Proyectos":8,"IE - Nombre":"NUESTRA SEÑORA DEL ROSARIO FE Y ALEGRIA 21","IE - DRE":"Cusco","IE - Latitud":-13.54474,"IE - Longitud":-71.88143},{"IE - Codigo modular":"0236901","IE - Nivel":"Secundaria","Cantidad_Proyectos":19,"IE - Nombre":"28","IE - DRE":"Cusco","IE - Latitud":-13.328353,"IE - Longitud":-71.952871},{"IE - Codigo modular":"0236919","IE - Nivel":"Secundaria","Cantidad_Proyectos":34,"IE - Nombre":"INA 67","IE - DRE":"Cusco","IE - Latitud":-12.856707,"IE - Longitud":-72.69593},{"IE - Codigo modular":"0236927","IE - Nivel":"Secundaria","Cantidad_Proyectos":23,"IE - Nombre":"AGROPECUARIO","IE - DRE":"Cusco","IE - Latitud":-13.3033,"IE - Longitud":-72.1228},{"IE - Codigo modular":"0236943","IE - Nivel":"Secundaria","Cantidad_Proyectos":26,"IE - Nombre":"AGROPECUARIO N 8","IE - DRE":"Apurímac","IE - Latitud":-13.650747,"IE - Longitud":-73.360875},{"IE - Codigo modular":"0238642","IE - Nivel":"Secundaria","Cantidad_Proyectos":38,"IE - Nombre":"GENARO HERRERA","IE - DRE":"Loreto","IE - Latitud":-7.348358,"IE - Longitud":-75.00436},{"IE - Codigo modular":"0238667","IE - Nivel":"Secundaria","Cantidad_Proyectos":9,"IE - Nombre":"EL ARENAL","IE - DRE":"Ucayali","IE - Latitud":-8.374448,"IE - Longitud":-74.535181},{"IE - Codigo modular":"0238675","IE - Nivel":"Secundaria","Cantidad_Proyectos":17,"IE - Nombre":"YARINACOCHA","IE - DRE":"Ucayali","IE - Latitud":-8.360333,"IE - Longitud":-74.570229},{"IE - Codigo modular":"0238683","IE - Nivel":"Secundaria","Cantidad_Proyectos":42,"IE - Nombre":"SAN FERNANDO","IE - DRE":"Ucayali","IE - Latitud":-8.398491,"IE - Longitud":-74.534422},{"IE - Codigo modular":"0238691","IE - Nivel":"Secundaria","Cantidad_Proyectos":1,"IE - Nombre":"JOAQUIN CAPELLO","IE - DRE":"Ucayali","IE - Latitud":-8.601812,"IE - Longitud":-74.310901},{"IE - Codigo modular":"0238709","IE - Nivel":"Secundaria","Cantidad_Proyectos":47,"IE - Nombre":"64721","IE - DRE":"Ucayali","IE - Latitud":-10.73144,"IE - Longitud":-73.75415},{"IE - Codigo modular":"0238717","IE - Nivel":"Secundaria","Cantidad_Proyectos":35,"IE - Nombre":"FERNANDO CARBAJAL","IE - DRE":"Ucayali","IE - Latitud":-9.03639,"IE - Longitud":-75.50947},{"IE - Codigo modular":"0238733","IE - Nivel":"Secundaria","Cantidad_Proyectos":10,"IE - Nombre":"CARLOS CAVERO EGUZQUIZA","IE - DRE":"Loreto","IE - Latitud":-6.913144,"IE - Longitud":-75.160437},{"IE - Codigo modular":"0238741","IE - Nivel":"Secundaria","Cantidad_Proyectos":13,"IE - Nombre":"LUIS BENJAMIN CISNEROS","IE - DRE":"Huánuco","IE - Latitud":-9.37964,"IE - Longitud":-74.9639},{"IE - Codigo modular":"0238758","IE - Nivel":"Secundaria","Cantidad_Proyectos":14,"IE - Nombre":"AUGUSTO SALAZAR BONDY","IE - DRE":"Ucayali","IE - Latitud":-8.47195,"IE - Longitud":-74.80497},{"IE - Codigo modular":"0238808","IE - Nivel":"Secundaria","Cantidad_Proyectos":9,"IE - Nombre":"64035 AGROPECUARIO","IE - DRE":"Ucayali","IE - Latitud":-8.391996,"IE - Longitud":-74.549076},{"IE - Codigo modular":"0238824","IE - Nivel":"Secundaria","Cantidad_Proyectos":13,"IE - Nombre":"64349","IE - DRE":"Huánuco","IE - Latitud":-8.9305,"IE - Longitud":-74.7033},{"IE - Codigo modular":"0238840","IE - Nivel":"Secundaria","Cantidad_Proyectos":16,"IE - Nombre":"COMERCIO 64","IE - DRE":"Ucayali","IE - Latitud":-8.376641,"IE - Longitud":-74.53735},{"IE - Codigo modular":"0239012","IE - Nivel":"Secundaria","Cantidad_Proyectos":41,"IE - Nombre":"PUCARA","IE - DRE":"Puno","IE - Latitud":-15.0464,"IE - Longitud":-70.3686},{"IE - Codigo modular":"0239475","IE - Nivel":"Secundaria","Cantidad_Proyectos":16,"IE - Nombre":"ARAPA","IE - DRE":"Puno","IE - Latitud":-15.139,"IE - Longitud":-70.1105},{"IE - Codigo modular":"0239483","IE - Nivel":"Secundaria","Cantidad_Proyectos":60,"IE - Nombre":"SAN ANTONIO DE PADUA","IE - DRE":"Puno","IE - Latitud":-14.90609,"IE - Longitud":-69.86531},{"IE - Codigo modular":"0239491","IE - Nivel":"Secundaria","Cantidad_Proyectos":24,"IE - Nombre":"JOSE DOMINGO CHOQUEHUANCA","IE - DRE":"Puno","IE - Latitud":-15.028651,"IE - Longitud":-70.338366},{"IE - Codigo modular":"0239517","IE - Nivel":"Secundaria","Cantidad_Proyectos":25,"IE - Nombre":"TUPAC AMARU","IE - DRE":"Puno","IE - Latitud":-14.48294,"IE - Longitud":-70.626024},{"IE - Codigo modular":"0239525","IE - Nivel":"Secundaria","Cantidad_Proyectos":58,"IE - Nombre":"JUAN BUSTAMANTE","IE - DRE":"Puno","IE - Latitud":-15.363,"IE - Longitud":-70.3635},{"IE - Codigo modular":"0239533","IE - Nivel":"Secundaria","Cantidad_Proyectos":38,"IE - Nombre":"JOSE ABELARDO QUIÑONES GONZALES","IE - DRE":"Puno","IE - Latitud":-15.35808,"IE - Longitud":-69.50202},{"IE - Codigo modular":"0239541","IE - Nivel":"Secundaria","Cantidad_Proyectos":30,"IE - Nombre":"JOSE CARLOS MARIATEGUI","IE - DRE":"Puno","IE - Latitud":-14.321654,"IE - Longitud":-69.46789},{"IE - Codigo modular":"0239558","IE - Nivel":"Secundaria","Cantidad_Proyectos":52,"IE - Nombre":"TARACO","IE - DRE":"Puno","IE - Latitud":-15.298,"IE - Longitud":-69.9806},{"IE - Codigo modular":"0239566","IE - Nivel":"Secundaria","Cantidad_Proyectos":29,"IE - Nombre":"CABANILLAS","IE - DRE":"Puno","IE - Latitud":-15.642086,"IE - Longitud":-70.347708},{"IE - Codigo modular":"0239582","IE - Nivel":"Secundaria","Cantidad_Proyectos":27,"IE - Nombre":"FRANCISCANO SAN ROMAN","IE - DRE":"Puno","IE - Latitud":-15.49307,"IE - Longitud":-70.13622},{"IE - Codigo modular":"0239590","IE - Nivel":"Secundaria","Cantidad_Proyectos":14,"IE - Nombre":"VILLA DE FATIMA","IE - DRE":"Puno","IE - Latitud":-15.836178,"IE - Longitud":-70.029254},{"IE - Codigo modular":"0239608","IE - Nivel":"Secundaria","Cantidad_Proyectos":26,"IE - Nombre":"ELENA DE SANTA MARIA","IE - DRE":"Puno","IE - Latitud":-15.52179,"IE - Longitud":-70.12516},{"IE - Codigo modular":"0239616","IE - Nivel":"Secundaria","Cantidad_Proyectos":17,"IE - Nombre":"ADVENTISTA DEL TITICACA","IE - DRE":"Puno","IE - Latitud":-15.51645,"IE - Longitud":-70.179603},{"IE - Codigo modular":"0239665","IE - Nivel":"Secundaria","Cantidad_Proyectos":49,"IE - Nombre":"JOSE ANTONIO ENCINAS","IE - DRE":"Puno","IE - Latitud":-15.487692,"IE - Longitud":-70.124215},{"IE - Codigo modular":"0239699","IE - Nivel":"Secundaria","Cantidad_Proyectos":18,"IE - Nombre":"91 JOSE IGNACIO MIRANDA","IE - DRE":"Puno","IE - Latitud":-15.512981,"IE - Longitud":-70.12539},{"IE - Codigo modular":"0239707","IE - Nivel":"Secundaria","Cantidad_Proyectos":25,"IE - Nombre":"72","IE - DRE":"Puno","IE - Latitud":-14.870318,"IE - Longitud":-70.592028},{"IE - Codigo modular":"0239715","IE - Nivel":"Secundaria","Cantidad_Proyectos":28,"IE - Nombre":"73 AGROPECUARIA","IE - DRE":"Puno","IE - Latitud":-16.281412,"IE - Longitud":-69.283664},{"IE - Codigo modular":"0239723","IE - Nivel":"Secundaria","Cantidad_Proyectos":7,"IE - Nombre":"ENRIQUE TORRES BELON","IE - DRE":"Puno","IE - Latitud":-15.601904,"IE - Longitud":-69.84773},{"IE - Codigo modular":"0239731","IE - Nivel":"Secundaria","Cantidad_Proyectos":39,"IE - Nombre":"INA 21 JOSE DOMINGO CHOQUEHUANCA","IE - DRE":"Puno","IE - Latitud":-14.913355,"IE - Longitud":-70.191782},{"IE - Codigo modular":"0239749","IE - Nivel":"Secundaria","Cantidad_Proyectos":12,"IE - Nombre":"108","IE - DRE":"Puno","IE - Latitud":-14.61862,"IE - Longitud":-70.79022},{"IE - Codigo modular":"0239756","IE - Nivel":"Secundaria","Cantidad_Proyectos":19,"IE - Nombre":"125","IE - DRE":"Puno","IE - Latitud":-15.1067,"IE - Longitud":-69.9794},{"IE - Codigo modular":"0239764","IE - Nivel":"Secundaria","Cantidad_Proyectos":16,"IE - Nombre":"AGRO INDUSTRIAL 128","IE - DRE":"Puno","IE - Latitud":-15.462372,"IE - Longitud":-69.437793},{"IE - Codigo modular":"0239772","IE - Nivel":"Secundaria","Cantidad_Proyectos":9,"IE - Nombre":"AGROPECUARIO SAN JUAN DEL ORO","IE - DRE":"Puno","IE - Latitud":-14.2247,"IE - Longitud":-69.1599},{"IE - Codigo modular":"0239780","IE - Nivel":"Secundaria","Cantidad_Proyectos":6,"IE - Nombre":"92","IE - DRE":"Puno","IE - Latitud":-15.2155,"IE - Longitud":-69.6881},{"IE - Codigo modular":"0239798","IE - Nivel":"Secundaria","Cantidad_Proyectos":15,"IE - Nombre":"SAN JUAN BOSCO","IE - DRE":"Puno","IE - Latitud":-15.883963,"IE - Longitud":-70.001613},{"IE - Codigo modular":"0239806","IE - Nivel":"Secundaria","Cantidad_Proyectos":39,"IE - Nombre":"32 MARIANO H. CORNEJO","IE - DRE":"Puno","IE - Latitud":-15.50433,"IE - Longitud":-70.12706},{"IE - Codigo modular":"0239814","IE - Nivel":"Secundaria","Cantidad_Proyectos":36,"IE - Nombre":"45 EMILIO ROMERO PADILLA","IE - DRE":"Puno","IE - Latitud":-15.841397,"IE - Longitud":-70.025192},{"IE - Codigo modular":"0239822","IE - Nivel":"Secundaria","Cantidad_Proyectos":19,"IE - Nombre":"32","IE - DRE":"Puno","IE - Latitud":-15.847185,"IE - Longitud":-70.017189},{"IE - Codigo modular":"0239848","IE - Nivel":"Secundaria","Cantidad_Proyectos":23,"IE - Nombre":"JOSE MARIA ARGUEDAS","IE - DRE":"Puno","IE - Latitud":-15.50469,"IE - Longitud":-70.13548},{"IE - Codigo modular":"0239855","IE - Nivel":"Secundaria","Cantidad_Proyectos":3,"IE - Nombre":"SANTIAGO DE PUPUJA","IE - DRE":"Puno","IE - Latitud":-15.0527,"IE - Longitud":-70.27745},{"IE - Codigo modular":"0239863","IE - Nivel":"Secundaria","Cantidad_Proyectos":33,"IE - Nombre":"POLITECNICO REGIONAL LOS ANDES","IE - DRE":"Puno","IE - Latitud":-15.488678,"IE - Longitud":-70.143998},{"IE - Codigo modular":"0239905","IE - Nivel":"Secundaria","Cantidad_Proyectos":42,"IE - Nombre":"27 SANTA LUCIA FE Y ALEGRIA","IE - DRE":"Puno","IE - Latitud":-14.7706,"IE - Longitud":-70.9043},{"IE - Codigo modular":"0240176","IE - Nivel":"Secundaria","Cantidad_Proyectos":46,"IE - Nombre":"GRAN UNIDAD ESCOLAR SAN CARLOS","IE - DRE":"Puno","IE - Latitud":-15.840344,"IE - Longitud":-70.02443},{"IE - Codigo modular":"0240184","IE - Nivel":"Secundaria","Cantidad_Proyectos":40,"IE - Nombre":"GLORIOSO SAN CARLOS","IE - DRE":"Puno","IE - Latitud":-15.837603,"IE - Longitud":-70.027239},{"IE - Codigo modular":"0240192","IE - Nivel":"Secundaria","Cantidad_Proyectos":52,"IE - Nombre":"JOSE GALVEZ","IE - DRE":"Puno","IE - Latitud":-16.249612,"IE - Longitud":-69.096692},{"IE - Codigo modular":"0240200","IE - Nivel":"Secundaria","Cantidad_Proyectos":52,"IE - Nombre":"TELESFORO CATACORA","IE - DRE":"Puno","IE - Latitud":-16.210407,"IE - Longitud":-69.459174},{"IE - Codigo modular":"0240218","IE - Nivel":"Secundaria","Cantidad_Proyectos":60,"IE - Nombre":"JOSE CARLOS MARIATEGUI","IE - DRE":"Puno","IE - Latitud":-16.091221,"IE - Longitud":-69.639928},{"IE - Codigo modular":"0240259","IE - Nivel":"Secundaria","Cantidad_Proyectos":38,"IE - Nombre":"SANTA ROSA","IE - DRE":"Puno","IE - Latitud":-15.841331,"IE - Longitud":-70.02985},{"IE - Codigo modular":"0240267","IE - Nivel":"Secundaria","Cantidad_Proyectos":28,"IE - Nombre":"MARIA AUXILIADORA","IE - DRE":"Puno","IE - Latitud":-15.838498,"IE - Longitud":-70.032551},{"IE - Codigo modular":"0240275","IE - Nivel":"Secundaria","Cantidad_Proyectos":48,"IE - Nombre":"MARIA ASUNCION GALINDO","IE - DRE":"Puno","IE - Latitud":-16.211054,"IE - Longitud":-69.458028},{"IE - Codigo modular":"0240283","IE - Nivel":"Secundaria","Cantidad_Proyectos":54,"IE - Nombre":"NUESTRA SEÑORA DEL CARMEN","IE - DRE":"Puno","IE - Latitud":-16.08668,"IE - Longitud":-69.635678},{"IE - Codigo modular":"0240333","IE - Nivel":"Secundaria","Cantidad_Proyectos":43,"IE - Nombre":"TAWANTINSUYO","IE - DRE":"Puno","IE - Latitud":-16.561495,"IE - Longitud":-69.042801},{"IE - Codigo modular":"0240341","IE - Nivel":"Secundaria","Cantidad_Proyectos":30,"IE - Nombre":"ALFONSO TORRES LUNA","IE - DRE":"Puno","IE - Latitud":-15.97575,"IE - Longitud":-69.79526},{"IE - Codigo modular":"0240358","IE - Nivel":"Secundaria","Cantidad_Proyectos":19,"IE - Nombre":"EMILIO ROMERO PADILLA","IE - DRE":"Puno","IE - Latitud":-15.8935,"IE - Longitud":-69.88954},{"IE - Codigo modular":"0240366","IE - Nivel":"Secundaria","Cantidad_Proyectos":39,"IE - Nombre":"SAN JERONIMO","IE - DRE":"Puno","IE - Latitud":-14.7861,"IE - Longitud":-70.34947},{"IE - Codigo modular":"0242271","IE - Nivel":"Secundaria","Cantidad_Proyectos":32,"IE - Nombre":"64753 FAUSTINO MALDONADO","IE - DRE":"Ucayali","IE - Latitud":-8.376569,"IE - Longitud":-74.557574},{"IE - Codigo modular":"0242289","IE - Nivel":"Secundaria","Cantidad_Proyectos":32,"IE - Nombre":"LA INMACULADA","IE - DRE":"Ucayali","IE - Latitud":-8.378601,"IE - Longitud":-74.531641},{"IE - Codigo modular":"0245092","IE - Nivel":"Secundaria","Cantidad_Proyectos":7,"IE - Nombre":"MARIA REYNA","IE - DRE":"Lima Provincias","IE - Latitud":-11.490831,"IE - Longitud":-77.193211},{"IE - Codigo modular":"0245118","IE - Nivel":"Secundaria","Cantidad_Proyectos":15,"IE - Nombre":"NUESTRA SEÑORA DEL VALLE","IE - DRE":"Lima Provincias","IE - Latitud":-13.072318,"IE - Longitud":-76.334272},{"IE - Codigo modular":"0245126","IE - Nivel":"Secundaria","Cantidad_Proyectos":52,"IE - Nombre":"SAN MATEO DE HUANCHOR","IE - DRE":"Lima Provincias","IE - Latitud":-11.758431,"IE - Longitud":-76.298563},{"IE - Codigo modular":"0245159","IE - Nivel":"Secundaria","Cantidad_Proyectos":19,"IE - Nombre":"20551 CIRO ALEGRIA","IE - DRE":"Lima Provincias","IE - Latitud":-11.657062,"IE - Longitud":-76.505399},{"IE - Codigo modular":"0245183","IE - Nivel":"Secundaria","Cantidad_Proyectos":14,"IE - Nombre":"NUESTRA SEÑORA DEL CARMEN","IE - DRE":"Lima Provincias","IE - Latitud":-10.67739,"IE - Longitud":-77.81275},{"IE - Codigo modular":"0245191","IE - Nivel":"Secundaria","Cantidad_Proyectos":17,"IE - Nombre":"MARCELINO CHAMPAGNAT","IE - DRE":"Lima Provincias","IE - Latitud":-11.918154,"IE - Longitud":-76.668728},{"IE - Codigo modular":"0245522","IE - Nivel":"Secundaria","Cantidad_Proyectos":1,"IE - Nombre":"AGROPECUARIO 15","IE - DRE":"Lima Provincias","IE - Latitud":-11.08573,"IE - Longitud":-77.58637},{"IE - Codigo modular":"0245548","IE - Nivel":"Secundaria","Cantidad_Proyectos":8,"IE - Nombre":"100","IE - DRE":"Lima Provincias","IE - Latitud":-11.508141,"IE - Longitud":-77.2055},{"IE - Codigo modular":"0245555","IE - Nivel":"Secundaria","Cantidad_Proyectos":3,"IE - Nombre":"CESAR VALLEJO","IE - DRE":"Lima Provincias","IE - Latitud":-11.567256,"IE - Longitud":-77.271043},{"IE - Codigo modular":"0245621","IE - Nivel":"Secundaria","Cantidad_Proyectos":19,"IE - Nombre":"CET 34","IE - DRE":"Lima Provincias","IE - Latitud":-11.560798,"IE - Longitud":-77.268857},{"IE - Codigo modular":"0245647","IE - Nivel":"Secundaria","Cantidad_Proyectos":48,"IE - Nombre":"1070 MELITON CARVAJAL","IE - DRE":"Lima Metropolitana","IE - Latitud":-12.08481,"IE - Longitud":-77.02604},{"IE - Codigo modular":"0245654","IE - Nivel":"Secundaria","Cantidad_Proyectos":13,"IE - Nombre":"1120 PEDRO ADOLFO LABARTHE EFFIO","IE - DRE":"Lima Metropolitana","IE - Latitud":-12.069334,"IE - Longitud":-77.006038},{"IE - Codigo modular":"0245662","IE - Nivel":"Secundaria","Cantidad_Proyectos":33,"IE - Nombre":"ISABEL LA CATOLICA","IE - DRE":"Lima Metropolitana","IE - Latitud":-12.06977,"IE - Longitud":-77.02396},{"IE - Codigo modular":"0245670","IE - Nivel":"Secundaria","Cantidad_Proyectos":35,"IE - Nombre":"MIGUEL GRAU","IE - DRE":"Lima Metropolitana","IE - Latitud":-12.0895,"IE - Longitud":-77.06857},{"IE - Codigo modular":"0245688","IE - Nivel":"Secundaria","Cantidad_Proyectos":26,"IE - Nombre":"TERESA GONZALES DE FANNING","IE - DRE":"Lima Metropolitana","IE - Latitud":-12.077513,"IE - Longitud":-77.045751},{"IE - Codigo modular":"0245696","IE - Nivel":"Secundaria","Cantidad_Proyectos":11,"IE - Nombre":"CESAR A. VALLEJO","IE - DRE":"Lima Metropolitana","IE - Latitud":-12.0681,"IE - Longitud":-77.006771},{"IE - Codigo modular":"0245704","IE - Nivel":"Secundaria","Cantidad_Proyectos":14,"IE - Nombre":"PABLO PATRON","IE - DRE":"Lima Metropolitana","IE - Latitud":-11.92764,"IE - Longitud":-76.68543},{"IE - Codigo modular":"0262188","IE - Nivel":"Secundaria","Cantidad_Proyectos":17,"IE - Nombre":"SAN JUAN DE LA LIBERTAD","IE - DRE":"Amazonas","IE - Latitud":-6.229318,"IE - Longitud":-77.865568},{"IE - Codigo modular":"0262196","IE - Nivel":"Secundaria","Cantidad_Proyectos":20,"IE - Nombre":"VIRGEN ASUNTA","IE - DRE":"Amazonas","IE - Latitud":-6.23028,"IE - Longitud":-77.86994},{"IE - Codigo modular":"0262204","IE - Nivel":"Secundaria","Cantidad_Proyectos":2,"IE - Nombre":"SAN AGUSTIN","IE - DRE":"Amazonas","IE - Latitud":-6.70537,"IE - Longitud":-77.80567},{"IE - Codigo modular":"0262220","IE - Nivel":"Secundaria","Cantidad_Proyectos":15,"IE - Nombre":"PABLO VISALOT","IE - DRE":"Amazonas","IE - Latitud":-5.902691,"IE - Longitud":-77.799354},{"IE - Codigo modular":"0262238","IE - Nivel":"Secundaria","Cantidad_Proyectos":5,"IE - Nombre":"BRAULIO DE CAMPORREDONDO","IE - DRE":"Amazonas","IE - Latitud":-6.217203,"IE - Longitud":-78.321957},{"IE - Codigo modular":"0262246","IE - Nivel":"Secundaria","Cantidad_Proyectos":12,"IE - Nombre":"BLAS VALERA","IE - DRE":"Amazonas","IE - Latitud":-6.14629,"IE - Longitud":-77.9512},{"IE - Codigo modular":"0262253","IE - Nivel":"Secundaria","Cantidad_Proyectos":5,"IE - Nombre":"TORIBIO RODRIGUEZ DE MENDOZA","IE - DRE":"Amazonas","IE - Latitud":-6.393748,"IE - Longitud":-77.487376},{"IE - Codigo modular":"0262279","IE - Nivel":"Secundaria","Cantidad_Proyectos":23,"IE - Nombre":"RAMON CASTILLA","IE - DRE":"Amazonas","IE - Latitud":-6.15911,"IE - Longitud":-77.94415},{"IE - Codigo modular":"0262931","IE - Nivel":"Secundaria","Cantidad_Proyectos":26,"IE - Nombre":"JAEN DE BRACAMOROS","IE - DRE":"Cajamarca","IE - Latitud":-5.70551,"IE - Longitud":-78.813314},{"IE - Codigo modular":"0262949","IE - Nivel":"Secundaria","Cantidad_Proyectos":17,"IE - Nombre":"SAGRADO CORAZON","IE - DRE":"Cajamarca","IE - Latitud":-5.7091,"IE - Longitud":-78.8139},{"IE - Codigo modular":"0262956","IE - Nivel":"Secundaria","Cantidad_Proyectos":26,"IE - Nombre":"EMBLEMATICA MANUEL ANTONIO MESONES MURO","IE - DRE":"Amazonas","IE - Latitud":-5.637421,"IE - Longitud":-78.533796},{"IE - Codigo modular":"0262964","IE - Nivel":"Secundaria","Cantidad_Proyectos":41,"IE - Nombre":"TITO CUSY YUPANQUI","IE - DRE":"Cajamarca","IE - Latitud":-5.146826,"IE - Longitud":-79.002686},{"IE - Codigo modular":"0262972","IE - Nivel":"Secundaria","Cantidad_Proyectos":1,"IE - Nombre":"ANTENOR ORREGO","IE - DRE":"Cajamarca","IE - Latitud":-5.6643,"IE - Longitud":-78.68},{"IE - Codigo modular":"0262980","IE - Nivel":"Secundaria","Cantidad_Proyectos":9,"IE - Nombre":"ALFONSO VILLANUEVA PINILLOS","IE - DRE":"Cajamarca","IE - Latitud":-6.039428,"IE - Longitud":-79.130733},{"IE - Codigo modular":"0262998","IE - Nivel":"Secundaria","Cantidad_Proyectos":7,"IE - Nombre":"MARIA INMACULADA - FE Y ALEGRIA 78","IE - DRE":"Cajamarca","IE - Latitud":-6.042476,"IE - Longitud":-79.129799},{"IE - Codigo modular":"0263053","IE - Nivel":"Secundaria","Cantidad_Proyectos":40,"IE - Nombre":"FE Y ALEGRIA 22 SAN LUIS GONZAGA","IE - DRE":"Cajamarca","IE - Latitud":-5.714296,"IE - Longitud":-78.809197},{"IE - Codigo modular":"0263095","IE - Nivel":"Secundaria","Cantidad_Proyectos":13,"IE - Nombre":"ALFONSO VILLANUEVA PINILLOS","IE - DRE":"Cajamarca","IE - Latitud":-5.702602,"IE - Longitud":-78.809745},{"IE - Codigo modular":"0263103","IE - Nivel":"Secundaria","Cantidad_Proyectos":6,"IE - Nombre":"AGROPECUARIO TORIBIO RODRIGUEZ DE MENDOZA","IE - DRE":"Amazonas","IE - Latitud":-5.639328,"IE - Longitud":-78.523505},{"IE - Codigo modular":"0263111","IE - Nivel":"Secundaria","Cantidad_Proyectos":2,"IE - Nombre":"FE Y ALEGRIA 55 VALENTIN SALEGUI","IE - DRE":"Amazonas","IE - Latitud":-5.044055,"IE - Longitud":-78.332552},{"IE - Codigo modular":"0266551","IE - Nivel":"Secundaria","Cantidad_Proyectos":26,"IE - Nombre":"MONS. ATANASIO JAUREGUI GOIRI","IE - DRE":"Loreto","IE - Latitud":-5.8926,"IE - Longitud":-76.11517},{"IE - Codigo modular":"0266585","IE - Nivel":"Secundaria","Cantidad_Proyectos":29,"IE - Nombre":"MIGUEL ACOSTA OYARCE","IE - DRE":"Loreto","IE - Latitud":-3.90979,"IE - Longitud":-70.51666},{"IE - Codigo modular":"0266668","IE - Nivel":"Secundaria","Cantidad_Proyectos":30,"IE - Nombre":"INDUSTRIAL 029","IE - DRE":"Loreto","IE - Latitud":-5.892787,"IE - Longitud":-76.113573},{"IE - Codigo modular":"0268243","IE - Nivel":"Secundaria","Cantidad_Proyectos":1,"IE - Nombre":"80102","IE - DRE":"La Libertad","IE - Latitud":-7.542599,"IE - Longitud":-77.588985},{"IE - Codigo modular":"0272401","IE - Nivel":"Secundaria","Cantidad_Proyectos":11,"IE - Nombre":"64330 AUGUSTO DURAND","IE - DRE":"Huánuco","IE - Latitud":-9.62948,"IE - Longitud":-74.97453},{"IE - Codigo modular":"0272427","IE - Nivel":"Secundaria","Cantidad_Proyectos":3,"IE - Nombre":"64332 JOSE CARLOS AMARINGO CHICO","IE - DRE":"Huánuco","IE - Latitud":-9.21325,"IE - Longitud":-74.87683},{"IE - Codigo modular":"0273516","IE - Nivel":"Secundaria","Cantidad_Proyectos":59,"IE - Nombre":"SERAFIN FILOMENO","IE - DRE":"San Martín","IE - Latitud":-6.03265,"IE - Longitud":-76.96157},{"IE - Codigo modular":"0273524","IE - Nivel":"Secundaria","Cantidad_Proyectos":47,"IE - Nombre":"IGNACIA VELASQUEZ","IE - DRE":"San Martín","IE - Latitud":-6.031,"IE - Longitud":-76.975},{"IE - Codigo modular":"0273532","IE - Nivel":"Secundaria","Cantidad_Proyectos":42,"IE - Nombre":"ALFREDO TEJADA","IE - DRE":"San Martín","IE - Latitud":-6.1368,"IE - Longitud":-77.1078},{"IE - Codigo modular":"0273540","IE - Nivel":"Secundaria","Cantidad_Proyectos":34,"IE - Nombre":"0005 ANTONIO RAYMONDI","IE - DRE":"San Martín","IE - Latitud":-6.9361,"IE - Longitud":-76.7701},{"IE - Codigo modular":"0273557","IE - Nivel":"Secundaria","Cantidad_Proyectos":26,"IE - Nombre":"0050 ABRAHAM CARDENAS RUIZ","IE - DRE":"San Martín","IE - Latitud":-7.0605,"IE - Longitud":-76.5901},{"IE - Codigo modular":"0273565","IE - Nivel":"Secundaria","Cantidad_Proyectos":46,"IE - Nombre":"MARTIN DE LA RIVA Y HERRERA","IE - DRE":"San Martín","IE - Latitud":-6.4177,"IE - Longitud":-76.5283},{"IE - Codigo modular":"0273581","IE - Nivel":"Secundaria","Cantidad_Proyectos":18,"IE - Nombre":"0707 EMILIO SAN MARTIN","IE - DRE":"San Martín","IE - Latitud":-6.384823,"IE - Longitud":-76.630449},{"IE - Codigo modular":"0273599","IE - Nivel":"Secundaria","Cantidad_Proyectos":47,"IE - Nombre":"MANUEL ANTONIO MESONES MURO","IE - DRE":"San Martín","IE - Latitud":-6.61473,"IE - Longitud":-76.69299},{"IE - Codigo modular":"0273607","IE - Nivel":"Secundaria","Cantidad_Proyectos":36,"IE - Nombre":"CARLOS WIESSE","IE - DRE":"San Martín","IE - Latitud":-7.180004,"IE - Longitud":-76.735422},{"IE - Codigo modular":"0273615","IE - Nivel":"Secundaria","Cantidad_Proyectos":64,"IE - Nombre":"LA INMACULADA","IE - DRE":"San Martín","IE - Latitud":-7.179446,"IE - Longitud":-76.729645},{"IE - Codigo modular":"0273623","IE - Nivel":"Secundaria","Cantidad_Proyectos":24,"IE - Nombre":"CAHUIDE","IE - DRE":"San Martín","IE - Latitud":-7.318595,"IE - Longitud":-76.773593},{"IE - Codigo modular":"0273631","IE - Nivel":"Secundaria","Cantidad_Proyectos":24,"IE - Nombre":"JOSE GALVEZ BARRENECHEA","IE - DRE":"San Martín","IE - Latitud":-8.45185,"IE - Longitud":-76.4623},{"IE - Codigo modular":"0273649","IE - Nivel":"Secundaria","Cantidad_Proyectos":16,"IE - Nombre":"NICANOR REATEGUI DEL AGUILA","IE - DRE":"San Martín","IE - Latitud":-8.448249,"IE - Longitud":-76.326},{"IE - Codigo modular":"0273664","IE - Nivel":"Secundaria","Cantidad_Proyectos":39,"IE - Nombre":"ABILIA OCAMPO","IE - DRE":"San Martín","IE - Latitud":-6.06137,"IE - Longitud":-77.16737},{"IE - Codigo modular":"0273672","IE - Nivel":"Secundaria","Cantidad_Proyectos":52,"IE - Nombre":"JUAN JIMENEZ PIMENTEL","IE - DRE":"San Martín","IE - Latitud":-6.488955,"IE - Longitud":-76.366675},{"IE - Codigo modular":"0273698","IE - Nivel":"Secundaria","Cantidad_Proyectos":23,"IE - Nombre":"OFELIA VELASQUEZ","IE - DRE":"San Martín","IE - Latitud":-6.4868,"IE - Longitud":-76.3619},{"IE - Codigo modular":"0273706","IE - Nivel":"Secundaria","Cantidad_Proyectos":11,"IE - Nombre":"JUAN GUERRA","IE - DRE":"San Martín","IE - Latitud":-6.5809,"IE - Longitud":-76.3297},{"IE - Codigo modular":"0273714","IE - Nivel":"Secundaria","Cantidad_Proyectos":3,"IE - Nombre":"SAN JUAN BAUTISTA","IE - DRE":"San Martín","IE - Latitud":-6.578,"IE - Longitud":-76.2638},{"IE - Codigo modular":"0273722","IE - Nivel":"Secundaria","Cantidad_Proyectos":13,"IE - Nombre":"SAN PEDRO","IE - DRE":"San Martín","IE - Latitud":-6.5722,"IE - Longitud":-76.1366},{"IE - Codigo modular":"0273730","IE - Nivel":"Secundaria","Cantidad_Proyectos":6,"IE - Nombre":"ANEXO-ARISTIDES DEL AGUILA RIOS","IE - DRE":"San Martín","IE - Latitud":-6.239477,"IE - Longitud":-75.839067},{"IE - Codigo modular":"0273748","IE - Nivel":"Secundaria","Cantidad_Proyectos":49,"IE - Nombre":"ALBERTO LEVEAU GARCIA","IE - DRE":"San Martín","IE - Latitud":-6.916769,"IE - Longitud":-76.332101},{"IE - Codigo modular":"0273755","IE - Nivel":"Secundaria","Cantidad_Proyectos":14,"IE - Nombre":"CESAR RUIZ REATEGUI","IE - DRE":"San Martín","IE - Latitud":-6.84922,"IE - Longitud":-76.34047},{"IE - Codigo modular":"0273763","IE - Nivel":"Secundaria","Cantidad_Proyectos":9,"IE - Nombre":"0663 PABLO CHAVEZ VILLAVERDE","IE - DRE":"San Martín","IE - Latitud":-6.69067,"IE - Longitud":-76.21908},{"IE - Codigo modular":"0273862","IE - Nivel":"Secundaria","Cantidad_Proyectos":11,"IE - Nombre":"0752 JOSE HERACLIDES VELA VASQUEZ","IE - DRE":"San Martín","IE - Latitud":-7.071432,"IE - Longitud":-76.718828},{"IE - Codigo modular":"0273870","IE - Nivel":"Secundaria","Cantidad_Proyectos":5,"IE - Nombre":"0763 CABO EJERCITO PERUANO SANTIAGO TAPULLIMA PASHANASI","IE - DRE":"San Martín","IE - Latitud":-6.5125,"IE - Longitud":-76.4814},{"IE - Codigo modular":"0273896","IE - Nivel":"Secundaria","Cantidad_Proyectos":6,"IE - Nombre":"MARCELINO CHAVEZ VILLAVERDE","IE - DRE":"San Martín","IE - Latitud":-5.9316,"IE - Longitud":-77.2191},{"IE - Codigo modular":"0273912","IE - Nivel":"Secundaria","Cantidad_Proyectos":28,"IE - Nombre":"SANTA ROSA","IE - DRE":"San Martín","IE - Latitud":-6.49116,"IE - Longitud":-76.3636},{"IE - Codigo modular":"0275438","IE - Nivel":"Secundaria","Cantidad_Proyectos":59,"IE - Nombre":"SAN LUIS GONZAGA","IE - DRE":"Ica","IE - Latitud":-14.06507,"IE - Longitud":-75.73309},{"IE - Codigo modular":"0275446","IE - Nivel":"Secundaria","Cantidad_Proyectos":28,"IE - Nombre":"JOSE DE SAN MARTIN","IE - DRE":"Ica","IE - Latitud":-13.7173,"IE - Longitud":-76.2183},{"IE - Codigo modular":"0275453","IE - Nivel":"Secundaria","Cantidad_Proyectos":55,"IE - Nombre":"JOSE PARDO Y BARREDA","IE - DRE":"Ica","IE - Latitud":-13.411659,"IE - Longitud":-76.132285},{"IE - Codigo modular":"0275461","IE - Nivel":"Secundaria","Cantidad_Proyectos":40,"IE - Nombre":"PROCERES DE LA INDEPENDENCIA","IE - DRE":"Ica","IE - Latitud":-13.420643,"IE - Longitud":-76.124573},{"IE - Codigo modular":"0275479","IE - Nivel":"Secundaria","Cantidad_Proyectos":25,"IE - Nombre":"JOSE TORIBIO POLO","IE - DRE":"Ica","IE - Latitud":-14.08415,"IE - Longitud":-75.73087},{"IE - Codigo modular":"0275487","IE - Nivel":"Secundaria","Cantidad_Proyectos":29,"IE - Nombre":"ABRAHAM VALDELOMAR","IE - DRE":"Ica","IE - Latitud":-14.071959,"IE - Longitud":-75.718819},{"IE - Codigo modular":"0275495","IE - Nivel":"Secundaria","Cantidad_Proyectos":10,"IE - Nombre":"SEBASTIAN BARRANCA","IE - DRE":"Ica","IE - Latitud":-14.184393,"IE - Longitud":-75.714405},{"IE - Codigo modular":"0275503","IE - Nivel":"Secundaria","Cantidad_Proyectos":70,"IE - Nombre":"SIMON RODRIGUEZ","IE - DRE":"Ica","IE - Latitud":-14.826498,"IE - Longitud":-74.932443},{"IE - Codigo modular":"0275511","IE - Nivel":"Secundaria","Cantidad_Proyectos":54,"IE - Nombre":"RAUL PORRAS BARRENECHEA","IE - DRE":"Ica","IE - Latitud":-14.53879,"IE - Longitud":-75.18577},{"IE - Codigo modular":"0275529","IE - Nivel":"Secundaria","Cantidad_Proyectos":58,"IE - Nombre":"SANTA ANA","IE - DRE":"Ica","IE - Latitud":-13.412879,"IE - Longitud":-76.12969},{"IE - Codigo modular":"0275537","IE - Nivel":"Secundaria","Cantidad_Proyectos":59,"IE - Nombre":"CHINCHAYSUYO","IE - DRE":"Ica","IE - Latitud":-13.412879,"IE - Longitud":-76.143797},{"IE - Codigo modular":"0275545","IE - Nivel":"Secundaria","Cantidad_Proyectos":49,"IE - Nombre":"ANTONIA MORENO DE CACERES","IE - DRE":"Ica","IE - Latitud":-14.07652,"IE - Longitud":-75.73504},{"IE - Codigo modular":"0275552","IE - Nivel":"Secundaria","Cantidad_Proyectos":55,"IE - Nombre":"NUESTRA SEÑORA DE LAS MERCEDES","IE - DRE":"Ica","IE - Latitud":-14.065379,"IE - Longitud":-75.736226},{"IE - Codigo modular":"0275560","IE - Nivel":"Secundaria","Cantidad_Proyectos":17,"IE - Nombre":"FRAY RAMON ROJAS","IE - DRE":"Ica","IE - Latitud":-14.186817,"IE - Longitud":-75.714136},{"IE - Codigo modular":"0275578","IE - Nivel":"Secundaria","Cantidad_Proyectos":47,"IE - Nombre":"JOSEFINA MEJIA DE BOCANEGRA","IE - DRE":"Ica","IE - Latitud":-14.823536,"IE - Longitud":-74.938131},{"IE - Codigo modular":"0275594","IE - Nivel":"Secundaria","Cantidad_Proyectos":43,"IE - Nombre":"BANDERA DEL PERU","IE - DRE":"Ica","IE - Latitud":-13.71081,"IE - Longitud":-76.20736},{"IE - Codigo modular":"0275602","IE - Nivel":"Secundaria","Cantidad_Proyectos":14,"IE - Nombre":"SAN ROQUE","IE - DRE":"Huancavelica","IE - Latitud":-13.285,"IE - Longitud":-75.3187},{"IE - Codigo modular":"0275610","IE - Nivel":"Secundaria","Cantidad_Proyectos":10,"IE - Nombre":"CESAR VALLEJO","IE - DRE":"Huancavelica","IE - Latitud":-14.041057,"IE - Longitud":-75.185452},{"IE - Codigo modular":"0275628","IE - Nivel":"Secundaria","Cantidad_Proyectos":24,"IE - Nombre":"SAN CRISTOBAL","IE - DRE":"Huancavelica","IE - Latitud":-13.2189,"IE - Longitud":-75.5351},{"IE - Codigo modular":"0275636","IE - Nivel":"Secundaria","Cantidad_Proyectos":36,"IE - Nombre":"SAN JUAN BAUTISTA","IE - DRE":"Huancavelica","IE - Latitud":-13.60283,"IE - Longitud":-75.35344},{"IE - Codigo modular":"0275644","IE - Nivel":"Secundaria","Cantidad_Proyectos":18,"IE - Nombre":"JUAN PABLO VIZCARDO Y GUZMAN","IE - DRE":"Huancavelica","IE - Latitud":-13.826377,"IE - Longitud":-75.254937},{"IE - Codigo modular":"0275651","IE - Nivel":"Secundaria","Cantidad_Proyectos":17,"IE - Nombre":"FRANCISCO BOLOGNESI","IE - DRE":"Huancavelica","IE - Latitud":-13.076405,"IE - Longitud":-75.6478},{"IE - Codigo modular":"0275669","IE - Nivel":"Secundaria","Cantidad_Proyectos":22,"IE - Nombre":"LOS LIBERTADORES","IE - DRE":"Huancavelica","IE - Latitud":-13.382049,"IE - Longitud":-75.431613},{"IE - Codigo modular":"0275677","IE - Nivel":"Secundaria","Cantidad_Proyectos":18,"IE - Nombre":"9 DE DICIEMBRE","IE - DRE":"Ica","IE - Latitud":-13.399799,"IE - Longitud":-76.132527},{"IE - Codigo modular":"0275685","IE - Nivel":"Secundaria","Cantidad_Proyectos":50,"IE - Nombre":"MELCHORITA SARAVIA","IE - DRE":"Ica","IE - Latitud":-13.402057,"IE - Longitud":-76.15846},{"IE - Codigo modular":"0275693","IE - Nivel":"Secundaria","Cantidad_Proyectos":38,"IE - Nombre":"SIMON BOLIVAR","IE - DRE":"Ica","IE - Latitud":-13.429166,"IE - Longitud":-76.16398},{"IE - Codigo modular":"0275701","IE - Nivel":"Secundaria","Cantidad_Proyectos":45,"IE - Nombre":"NUESTRA SEÑORA DEL CARMEN","IE - DRE":"Ica","IE - Latitud":-13.499952,"IE - Longitud":-76.059774},{"IE - Codigo modular":"0275719","IE - Nivel":"Secundaria","Cantidad_Proyectos":32,"IE - Nombre":"VICTOR MANUEL MAURTUA","IE - DRE":"Ica","IE - Latitud":-14.04486,"IE - Longitud":-75.70628},{"IE - Codigo modular":"0275727","IE - Nivel":"Secundaria","Cantidad_Proyectos":22,"IE - Nombre":"GENERAL JUAN PABLO FERNANDINI","IE - DRE":"Ica","IE - Latitud":-13.99026,"IE - Longitud":-75.77422},{"IE - Codigo modular":"0275735","IE - Nivel":"Secundaria","Cantidad_Proyectos":29,"IE - Nombre":"CATALINA BUENDIA DE PECHO","IE - DRE":"Ica","IE - Latitud":-13.931513,"IE - Longitud":-75.670797},{"IE - Codigo modular":"0275743","IE - Nivel":"Secundaria","Cantidad_Proyectos":35,"IE - Nombre":"JOSE MANUEL MEZA","IE - DRE":"Ica","IE - Latitud":-14.64552,"IE - Longitud":-75.0605},{"IE - Codigo modular":"0275750","IE - Nivel":"Secundaria","Cantidad_Proyectos":38,"IE - Nombre":"SAN JUAN","IE - DRE":"Ica","IE - Latitud":-15.361052,"IE - Longitud":-75.166367},{"IE - Codigo modular":"0275768","IE - Nivel":"Secundaria","Cantidad_Proyectos":4,"IE - Nombre":"IGNACIO GUEVARA CALDERON","IE - DRE":"Ayacucho","IE - Latitud":-14.3988,"IE - Longitud":-74.8237},{"IE - Codigo modular":"0275776","IE - Nivel":"Secundaria","Cantidad_Proyectos":5,"IE - Nombre":"LUIS E. GALVAN CANDIOTTI","IE - DRE":"Ayacucho","IE - Latitud":-14.2877,"IE - Longitud":-74.842},{"IE - Codigo modular":"0275784","IE - Nivel":"Secundaria","Cantidad_Proyectos":4,"IE - Nombre":"SAN VICENTE","IE - DRE":"Ica","IE - Latitud":-14.067873,"IE - Longitud":-75.739995},{"IE - Codigo modular":"0275792","IE - Nivel":"Secundaria","Cantidad_Proyectos":44,"IE - Nombre":"REINA DEL SANTISIMO ROSARIO","IE - DRE":"Ica","IE - Latitud":-13.44224,"IE - Longitud":-76.13525},{"IE - Codigo modular":"0275818","IE - Nivel":"Secundaria","Cantidad_Proyectos":32,"IE - Nombre":"SAN JOSE","IE - DRE":"Ica","IE - Latitud":-14.06969,"IE - Longitud":-75.73131},{"IE - Codigo modular":"0275834","IE - Nivel":"Secundaria","Cantidad_Proyectos":10,"IE - Nombre":"VIRGEN MARIA","IE - DRE":"Ica","IE - Latitud":-14.06875,"IE - Longitud":-75.72957},{"IE - Codigo modular":"0275859","IE - Nivel":"Secundaria","Cantidad_Proyectos":27,"IE - Nombre":"PERUANO CANADIENSE","IE - DRE":"Ica","IE - Latitud":-14.04574,"IE - Longitud":-75.75047},{"IE - Codigo modular":"0276030","IE - Nivel":"Secundaria","Cantidad_Proyectos":29,"IE - Nombre":"CAP. FAP JOSE ABELARDO QUIÑONES GONZALES","IE - DRE":"Ica","IE - Latitud":-14.519148,"IE - Longitud":-75.198581},{"IE - Codigo modular":"0276048","IE - Nivel":"Secundaria","Cantidad_Proyectos":43,"IE - Nombre":"ANDRES AVELINO CACERES","IE - DRE":"Ica","IE - Latitud":-13.419104,"IE - Longitud":-76.137043},{"IE - Codigo modular":"0276089","IE - Nivel":"Secundaria","Cantidad_Proyectos":42,"IE - Nombre":"JOHN F. KENNEDY","IE - DRE":"Ica","IE - Latitud":-13.418403,"IE - Longitud":-76.13655},{"IE - Codigo modular":"0284554","IE - Nivel":"Secundaria","Cantidad_Proyectos":2,"IE - Nombre":"SAN JOSE HERMANOS MARISTAS","IE - DRE":"Lima Provincias","IE - Latitud":-11.1144,"IE - Longitud":-77.61101},{"IE - Codigo modular":"0285767","IE - Nivel":"Secundaria","Cantidad_Proyectos":34,"IE - Nombre":"LUIS FABIO XAMMAR JURADO","IE - DRE":"Lima Provincias","IE - Latitud":-11.10477,"IE - Longitud":-77.59548},{"IE - Codigo modular":"0285775","IE - Nivel":"Secundaria","Cantidad_Proyectos":23,"IE - Nombre":"20449 ANDRES DE LOS REYES","IE - DRE":"Lima Provincias","IE - Latitud":-11.49365,"IE - Longitud":-77.1988},{"IE - Codigo modular":"0285783","IE - Nivel":"Secundaria","Cantidad_Proyectos":17,"IE - Nombre":"JOSE BUENAVENTURA SEPULVEDA","IE - DRE":"Lima Provincias","IE - Latitud":-13.07666,"IE - Longitud":-76.38925},{"IE - Codigo modular":"0285791","IE - Nivel":"Secundaria","Cantidad_Proyectos":42,"IE - Nombre":"GUILLERMO E. BILLINGHURST","IE - DRE":"Lima Provincias","IE - Latitud":-10.76063,"IE - Longitud":-77.75883},{"IE - Codigo modular":"0285809","IE - Nivel":"Secundaria","Cantidad_Proyectos":21,"IE - Nombre":"IMPERIAL C.N.I.","IE - DRE":"Lima Provincias","IE - Latitud":-13.064703,"IE - Longitud":-76.352767},{"IE - Codigo modular":"0285817","IE - Nivel":"Secundaria","Cantidad_Proyectos":18,"IE - Nombre":"20827 MERCEDES INDACOCHEA LOZANO","IE - DRE":"Lima Provincias","IE - Latitud":-11.121589,"IE - Longitud":-77.610642},{"IE - Codigo modular":"0286252","IE - Nivel":"Secundaria","Cantidad_Proyectos":40,"IE - Nombre":"VENTURA CCALAMAQUI","IE - DRE":"Lima Provincias","IE - Latitud":-10.75217,"IE - Longitud":-77.75735},{"IE - Codigo modular":"0286260","IE - Nivel":"Secundaria","Cantidad_Proyectos":32,"IE - Nombre":"NUESTRA SEÑORA DEL CARMEN","IE - DRE":"Lima Provincias","IE - Latitud":-11.495857,"IE - Longitud":-77.209667},{"IE - Codigo modular":"0286278","IE - Nivel":"Secundaria","Cantidad_Proyectos":30,"IE - Nombre":"SANTA RITA DE CASSIA","IE - DRE":"Lima Provincias","IE - Latitud":-13.08496,"IE - Longitud":-76.38696},{"IE - Codigo modular":"0286286","IE - Nivel":"Secundaria","Cantidad_Proyectos":12,"IE - Nombre":"NUESTRA SEÑORA DEL CARMEN","IE - DRE":"Lima Provincias","IE - Latitud":-13.05633,"IE - Longitud":-76.35414},{"IE - Codigo modular":"0286294","IE - Nivel":"Secundaria","Cantidad_Proyectos":16,"IE - Nombre":"PAULINO FUENTES CASTRO","IE - DRE":"Lima Provincias","IE - Latitud":-10.466721,"IE - Longitud":-76.999754},{"IE - Codigo modular":"0286302","IE - Nivel":"Secundaria","Cantidad_Proyectos":41,"IE - Nombre":"LIBERTADOR JOSE DE SAN MARTIN","IE - DRE":"Lima Provincias","IE - Latitud":-10.666806,"IE - Longitud":-76.771241},{"IE - Codigo modular":"0286310","IE - Nivel":"Secundaria","Cantidad_Proyectos":2,"IE - Nombre":"20265 LOS ATAVILLOS","IE - DRE":"Lima Provincias","IE - Latitud":-11.372772,"IE - Longitud":-76.79779},{"IE - Codigo modular":"0286336","IE - Nivel":"Secundaria","Cantidad_Proyectos":1,"IE - Nombre":"SAN PEDRO DE PIRCA","IE - DRE":"Lima Provincias","IE - Latitud":-11.23724,"IE - Longitud":-76.65473},{"IE - Codigo modular":"0286344","IE - Nivel":"Secundaria","Cantidad_Proyectos":11,"IE - Nombre":"AGROPECUARIO TECNICO INDUSTRIAL NUESTRO SEÑOR","IE - DRE":"Lima Provincias","IE - Latitud":-11.50187,"IE - Longitud":-76.748817},{"IE - Codigo modular":"0286351","IE - Nivel":"Secundaria","Cantidad_Proyectos":1,"IE - Nombre":"ALONSO DE MESSIAS","IE - DRE":"Lima Provincias","IE - Latitud":-11.18584,"IE - Longitud":-76.647441},{"IE - Codigo modular":"0286369","IE - Nivel":"Secundaria","Cantidad_Proyectos":23,"IE - Nombre":"GERARDO SALOMON MEJIA SACO","IE - DRE":"Lima Provincias","IE - Latitud":-13.022,"IE - Longitud":-76.4782},{"IE - Codigo modular":"0286377","IE - Nivel":"Secundaria","Cantidad_Proyectos":39,"IE - Nombre":"MARISCAL BENAVIDES","IE - DRE":"Lima Provincias","IE - Latitud":-12.961125,"IE - Longitud":-76.13993},{"IE - Codigo modular":"0286385","IE - Nivel":"Secundaria","Cantidad_Proyectos":45,"IE - Nombre":"DIONISIO MANCO CAMPOS","IE - DRE":"Lima Provincias","IE - Latitud":-12.6593,"IE - Longitud":-76.6294},{"IE - Codigo modular":"0286393","IE - Nivel":"Secundaria","Cantidad_Proyectos":9,"IE - Nombre":"SANTIAGO ANTUNEZ DE MAYOLO","IE - DRE":"Lima Provincias","IE - Latitud":-12.865987,"IE - Longitud":-76.051432},{"IE - Codigo modular":"0286401","IE - Nivel":"Secundaria","Cantidad_Proyectos":24,"IE - Nombre":"MIGUEL GRAU","IE - DRE":"Lima Provincias","IE - Latitud":-12.9432,"IE - Longitud":-76.384},{"IE - Codigo modular":"0286419","IE - Nivel":"Secundaria","Cantidad_Proyectos":37,"IE - Nombre":"SAN ANTONIO DE PADUA","IE - DRE":"Lima Provincias","IE - Latitud":-12.643247,"IE - Longitud":-76.650913},{"IE - Codigo modular":"0286427","IE - Nivel":"Secundaria","Cantidad_Proyectos":14,"IE - Nombre":"SAN LUIS","IE - DRE":"Lima Provincias","IE - Latitud":-13.056027,"IE - Longitud":-76.426605},{"IE - Codigo modular":"0286443","IE - Nivel":"Secundaria","Cantidad_Proyectos":31,"IE - Nombre":"MIGUEL GRAU","IE - DRE":"Lima Provincias","IE - Latitud":-10.673832,"IE - Longitud":-77.811688},{"IE - Codigo modular":"0286450","IE - Nivel":"Secundaria","Cantidad_Proyectos":28,"IE - Nombre":"LIBERTADOR SIMON BOLIVAR","IE - DRE":"Lima Provincias","IE - Latitud":-10.69512,"IE - Longitud":-77.78144},{"IE - Codigo modular":"0286468","IE - Nivel":"Secundaria","Cantidad_Proyectos":30,"IE - Nombre":"FRANCISCO VIDAL LAOS","IE - DRE":"Lima Provincias","IE - Latitud":-10.793968,"IE - Longitud":-77.713117},{"IE - Codigo modular":"0286476","IE - Nivel":"Secundaria","Cantidad_Proyectos":11,"IE - Nombre":"FRAY MELCHOR APONTE","IE - DRE":"Lima Provincias","IE - Latitud":-11.0216,"IE - Longitud":-77.6374},{"IE - Codigo modular":"0286500","IE - Nivel":"Secundaria","Cantidad_Proyectos":24,"IE - Nombre":"JULIO C. TELLO","IE - DRE":"Lima Provincias","IE - Latitud":-11.848155,"IE - Longitud":-76.38879},{"IE - Codigo modular":"0286518","IE - Nivel":"Secundaria","Cantidad_Proyectos":10,"IE - Nombre":"VICTOR ANDRES BELAUNDE","IE - DRE":"Lima Provincias","IE - Latitud":-12.016255,"IE - Longitud":-76.391548},{"IE - Codigo modular":"0286526","IE - Nivel":"Secundaria","Cantidad_Proyectos":10,"IE - Nombre":"20559 SAN JUAN","IE - DRE":"Lima Provincias","IE - Latitud":-12.128471,"IE - Longitud":-76.420907},{"IE - Codigo modular":"0286534","IE - Nivel":"Secundaria","Cantidad_Proyectos":31,"IE - Nombre":"SANTA CRUZ","IE - DRE":"Lima Provincias","IE - Latitud":-12.13595,"IE - Longitud":-76.235743},{"IE - Codigo modular":"0286542","IE - Nivel":"Secundaria","Cantidad_Proyectos":44,"IE - Nombre":"SANTO DOMINGO","IE - DRE":"Lima Provincias","IE - Latitud":-12.459923,"IE - Longitud":-75.920239},{"IE - Codigo modular":"0286559","IE - Nivel":"Secundaria","Cantidad_Proyectos":17,"IE - Nombre":"HUAMPARA","IE - DRE":"Lima Provincias","IE - Latitud":-12.36229,"IE - Longitud":-76.164969},{"IE - Codigo modular":"0286567","IE - Nivel":"Secundaria","Cantidad_Proyectos":13,"IE - Nombre":"SAN JUAN BAUTISTA","IE - DRE":"Lima Provincias","IE - Latitud":-12.898968,"IE - Longitud":-75.831478},{"IE - Codigo modular":"0286575","IE - Nivel":"Secundaria","Cantidad_Proyectos":13,"IE - Nombre":"SANTO DOMINGO","IE - DRE":"Lima Provincias","IE - Latitud":-12.348308,"IE - Longitud":-75.78683},{"IE - Codigo modular":"0286583","IE - Nivel":"Secundaria","Cantidad_Proyectos":20,"IE - Nombre":"SAN JERONIMO","IE - DRE":"Lima Provincias","IE - Latitud":-12.519222,"IE - Longitud":-76.291786},{"IE - Codigo modular":"0286591","IE - Nivel":"Secundaria","Cantidad_Proyectos":12,"IE - Nombre":"APOSTOL SANTIAGO","IE - DRE":"Lima Provincias","IE - Latitud":-12.303871,"IE - Longitud":-76.145611},{"IE - Codigo modular":"0286617","IE - Nivel":"Secundaria","Cantidad_Proyectos":8,"IE - Nombre":"SANTIAGO DE VIÑAC","IE - DRE":"Lima Provincias","IE - Latitud":-12.930387,"IE - Longitud":-75.77963},{"IE - Codigo modular":"0286625","IE - Nivel":"Secundaria","Cantidad_Proyectos":23,"IE - Nombre":"NUESTRA SEÑORA DE LA ASUNCION","IE - DRE":"Lima Provincias","IE - Latitud":-12.5213,"IE - Longitud":-76.7348},{"IE - Codigo modular":"0289272","IE - Nivel":"Secundaria","Cantidad_Proyectos":6,"IE - Nombre":"TAMBOGAN","IE - DRE":"Huánuco","IE - Latitud":-9.774947,"IE - Longitud":-76.226073},{"IE - Codigo modular":"0290569","IE - Nivel":"Secundaria","Cantidad_Proyectos":44,"IE - Nombre":"GRAN UNIDAD ESCOLAR LEONCIO PRADO","IE - DRE":"Huánuco","IE - Latitud":-9.92791,"IE - Longitud":-76.24231},{"IE - Codigo modular":"0290577","IE - Nivel":"Secundaria","Cantidad_Proyectos":61,"IE - Nombre":"AURELIO CARDENAS PACHAS","IE - DRE":"Huánuco","IE - Latitud":-9.82122,"IE - Longitud":-76.7987},{"IE - Codigo modular":"0290585","IE - Nivel":"Secundaria","Cantidad_Proyectos":31,"IE - Nombre":"NUESTRA SEÑORA DE LAS MERCEDES","IE - DRE":"Huánuco","IE - Latitud":-9.93186,"IE - Longitud":-76.24924},{"IE - Codigo modular":"0290601","IE - Nivel":"Secundaria","Cantidad_Proyectos":22,"IE - Nombre":"ILLATHUPA","IE - DRE":"Huánuco","IE - Latitud":-9.92486,"IE - Longitud":-76.24356},{"IE - Codigo modular":"0290619","IE - Nivel":"Secundaria","Cantidad_Proyectos":24,"IE - Nombre":"EL AMAUTA JOSE CARLOS MARIATEGUI","IE - DRE":"Huánuco","IE - Latitud":-9.94235,"IE - Longitud":-76.24786},{"IE - Codigo modular":"0290627","IE - Nivel":"Secundaria","Cantidad_Proyectos":13,"IE - Nombre":"JESUS NAZARENO","IE - DRE":"Huánuco","IE - Latitud":-10.01588,"IE - Longitud":-76.52556},{"IE - Codigo modular":"0290643","IE - Nivel":"Secundaria","Cantidad_Proyectos":44,"IE - Nombre":"JUAN JOSE CRESPO Y CASTILLO","IE - DRE":"Huánuco","IE - Latitud":-10.120778,"IE - Longitud":-76.206387},{"IE - Codigo modular":"0290668","IE - Nivel":"Secundaria","Cantidad_Proyectos":29,"IE - Nombre":"ESTEBAN PAVLETICH TRUJILLO","IE - DRE":"Huánuco","IE - Latitud":-9.85876,"IE - Longitud":-76.60961},{"IE - Codigo modular":"0290676","IE - Nivel":"Secundaria","Cantidad_Proyectos":53,"IE - Nombre":"ENRIQUE LOPEZ ALBUJAR","IE - DRE":"Huánuco","IE - Latitud":-9.702603,"IE - Longitud":-76.768987},{"IE - Codigo modular":"0290684","IE - Nivel":"Secundaria","Cantidad_Proyectos":28,"IE - Nombre":"INCA PACHACUTEC","IE - DRE":"Huánuco","IE - Latitud":-9.79284,"IE - Longitud":-76.66263},{"IE - Codigo modular":"0290692","IE - Nivel":"Secundaria","Cantidad_Proyectos":44,"IE - Nombre":"TRES DE MAYO","IE - DRE":"Huánuco","IE - Latitud":-10.07716,"IE - Longitud":-76.73665},{"IE - Codigo modular":"0290700","IE - Nivel":"Secundaria","Cantidad_Proyectos":53,"IE - Nombre":"JOSE VARALLANOS","IE - DRE":"Huánuco","IE - Latitud":-10.073373,"IE - Longitud":-76.631442},{"IE - Codigo modular":"0290718","IE - Nivel":"Secundaria","Cantidad_Proyectos":51,"IE - Nombre":"VICTOR E. VIVAR","IE - DRE":"Huánuco","IE - Latitud":-9.546662,"IE - Longitud":-76.816873},{"IE - Codigo modular":"0290726","IE - Nivel":"Secundaria","Cantidad_Proyectos":8,"IE - Nombre":"MIGUEL DE LA MATA BERAUN","IE - DRE":"Huánuco","IE - Latitud":-9.38479,"IE - Longitud":-76.80766},{"IE - Codigo modular":"0290734","IE - Nivel":"Secundaria","Cantidad_Proyectos":9,"IE - Nombre":"HERMINIO CORDOVA IBARRA","IE - DRE":"Huánuco","IE - Latitud":-9.3934,"IE - Longitud":-76.72009},{"IE - Codigo modular":"0290742","IE - Nivel":"Secundaria","Cantidad_Proyectos":21,"IE - Nombre":"JAVIER PEREZ DE CUELLAR","IE - DRE":"Huánuco","IE - Latitud":-9.279367,"IE - Longitud":-76.390749},{"IE - Codigo modular":"0290759","IE - Nivel":"Secundaria","Cantidad_Proyectos":38,"IE - Nombre":"GOMEZ ARIAS DAVILA","IE - DRE":"Huánuco","IE - Latitud":-9.30587,"IE - Longitud":-76.00341},{"IE - Codigo modular":"0290767","IE - Nivel":"Secundaria","Cantidad_Proyectos":28,"IE - Nombre":"INCA HUIRACOCHA","IE - DRE":"Huánuco","IE - Latitud":-8.9334,"IE - Longitud":-76.1178},{"IE - Codigo modular":"0290775","IE - Nivel":"Secundaria","Cantidad_Proyectos":32,"IE - Nombre":"TUPAC AMARU II","IE - DRE":"Huánuco","IE - Latitud":-9.89657,"IE - Longitud":-75.99171},{"IE - Codigo modular":"0290783","IE - Nivel":"Secundaria","Cantidad_Proyectos":5,"IE - Nombre":"SEMINARIO SAN LUIS GONZAGA","IE - DRE":"Huánuco","IE - Latitud":-9.93112,"IE - Longitud":-76.24263},{"IE - Codigo modular":"0290809","IE - Nivel":"Secundaria","Cantidad_Proyectos":36,"IE - Nombre":"LA SAGRADA FAMILIA FE Y ALEGRIA 64","IE - DRE":"Huánuco","IE - Latitud":-9.302513,"IE - Longitud":-76.002953},{"IE - Codigo modular":"0290841","IE - Nivel":"Secundaria","Cantidad_Proyectos":9,"IE - Nombre":"AGROPECUARIO NARANJILLO","IE - DRE":"Huánuco","IE - Latitud":-9.247594,"IE - Longitud":-75.995216},{"IE - Codigo modular":"0290858","IE - Nivel":"Secundaria","Cantidad_Proyectos":6,"IE - Nombre":"GREGORIO CARTAGENA","IE - DRE":"Huánuco","IE - Latitud":-10.1608,"IE - Longitud":-76.2367},{"IE - Codigo modular":"0290866","IE - Nivel":"Secundaria","Cantidad_Proyectos":23,"IE - Nombre":"JOSE ANTONIO ENCINAS FRANCO","IE - DRE":"Huánuco","IE - Latitud":-9.9819,"IE - Longitud":-76.6887},{"IE - Codigo modular":"0290874","IE - Nivel":"Secundaria","Cantidad_Proyectos":27,"IE - Nombre":"MILAGRO DE FATIMA","IE - DRE":"Huánuco","IE - Latitud":-9.92184,"IE - Longitud":-76.23801},{"IE - Codigo modular":"0290890","IE - Nivel":"Secundaria","Cantidad_Proyectos":10,"IE - Nombre":"INDUSTRIAL HERMILIO VALDIZAN","IE - DRE":"Huánuco","IE - Latitud":-9.93089,"IE - Longitud":-76.23536},{"IE - Codigo modular":"0293225","IE - Nivel":"Secundaria","Cantidad_Proyectos":3,"IE - Nombre":"32127 AUGUSTO RIVERA VARGAS","IE - DRE":"Huánuco","IE - Latitud":-9.808803,"IE - Longitud":-76.305974},{"IE - Codigo modular":"0302711","IE - Nivel":"Secundaria","Cantidad_Proyectos":1,"IE - Nombre":"60027","IE - DRE":"Loreto","IE - Latitud":-3.786487,"IE - Longitud":-73.339115},{"IE - Codigo modular":"0302844","IE - Nivel":"Secundaria","Cantidad_Proyectos":3,"IE - Nombre":"SAN JOSE","IE - DRE":"Loreto","IE - Latitud":-3.496874,"IE - Longitud":-73.042031},{"IE - Codigo modular":"0302851","IE - Nivel":"Secundaria","Cantidad_Proyectos":28,"IE - Nombre":"NUESTRA SEÑORA DE LORETO","IE - DRE":"Loreto","IE - Latitud":-4.5063,"IE - Longitud":-73.57506},{"IE - Codigo modular":"0302869","IE - Nivel":"Secundaria","Cantidad_Proyectos":32,"IE - Nombre":"PADRE AGUSTIN LOPEZ PARDO","IE - DRE":"Loreto","IE - Latitud":-5.063206,"IE - Longitud":-73.855283},{"IE - Codigo modular":"0302877","IE - Nivel":"Secundaria","Cantidad_Proyectos":30,"IE - Nombre":"MARIA INMACULADA","IE - DRE":"Loreto","IE - Latitud":-5.063798,"IE - Longitud":-73.855717},{"IE - Codigo modular":"0302885","IE - Nivel":"Secundaria","Cantidad_Proyectos":8,"IE - Nombre":"COLEGIO NACIONAL IQUITOS","IE - DRE":"Loreto","IE - Latitud":-3.7654,"IE - Longitud":-73.26864},{"IE - Codigo modular":"0302893","IE - Nivel":"Secundaria","Cantidad_Proyectos":13,"IE - Nombre":"TENIENTE MANUEL CLAVERO MUGA","IE - DRE":"Loreto","IE - Latitud":-3.731232,"IE - Longitud":-73.249125},{"IE - Codigo modular":"0302935","IE - Nivel":"Secundaria","Cantidad_Proyectos":4,"IE - Nombre":"PADRE JUAN LORENZO LUCERO","IE - DRE":"Loreto","IE - Latitud":-5.22897,"IE - Longitud":-75.674946},{"IE - Codigo modular":"0302943","IE - Nivel":"Secundaria","Cantidad_Proyectos":21,"IE - Nombre":"SAGRADO CORAZON","IE - DRE":"Loreto","IE - Latitud":-3.7502,"IE - Longitud":-73.2459},{"IE - Codigo modular":"0302950","IE - Nivel":"Secundaria","Cantidad_Proyectos":28,"IE - Nombre":"ROSA AGUSTINA DONAYRE DE MOREY","IE - DRE":"Loreto","IE - Latitud":-3.74257,"IE - Longitud":-73.25234},{"IE - Codigo modular":"0302968","IE - Nivel":"Secundaria","Cantidad_Proyectos":3,"IE - Nombre":"MAYNAS","IE - DRE":"Loreto","IE - Latitud":-3.73433,"IE - Longitud":-73.25175},{"IE - Codigo modular":"0304428","IE - Nivel":"Secundaria","Cantidad_Proyectos":40,"IE - Nombre":"SAN AGUSTIN","IE - DRE":"Loreto","IE - Latitud":-3.75463,"IE - Longitud":-73.2502},{"IE - Codigo modular":"0304444","IE - Nivel":"Secundaria","Cantidad_Proyectos":17,"IE - Nombre":"MARISCAL OSCAR R. BENAVIDES","IE - DRE":"Loreto","IE - Latitud":-3.74848,"IE - Longitud":-73.25939},{"IE - Codigo modular":"0305615","IE - Nivel":"Secundaria","Cantidad_Proyectos":1,"IE - Nombre":"COLEGIO DE LA INMACULADA (JESUITAS)","IE - DRE":"Lima Metropolitana","IE - Latitud":-12.13024,"IE - Longitud":-76.97277},{"IE - Codigo modular":"0305656","IE - Nivel":"Secundaria","Cantidad_Proyectos":22,"IE - Nombre":"7047 TACNA","IE - DRE":"Lima Metropolitana","IE - Latitud":-12.14433,"IE - Longitud":-77.01804},{"IE - Codigo modular":"0305771","IE - Nivel":"Secundaria","Cantidad_Proyectos":1,"IE - Nombre":"LA REPARACION","IE - DRE":"Lima Metropolitana","IE - Latitud":-12.12033,"IE - Longitud":-77.03251},{"IE - Codigo modular":"0305805","IE - Nivel":"Secundaria","Cantidad_Proyectos":5,"IE - Nombre":"MARIA DE LAS MERCEDES","IE - DRE":"Lima Metropolitana","IE - Latitud":-12.12964,"IE - Longitud":-77.00993},{"IE - Codigo modular":"0309187","IE - Nivel":"Secundaria","Cantidad_Proyectos":48,"IE - Nombre":"G.U.E. MARIANO MELGAR VALDIVIESO","IE - DRE":"Arequipa","IE - Latitud":-16.40855,"IE - Longitud":-71.51375},{"IE - Codigo modular":"0309195","IE - Nivel":"Secundaria","Cantidad_Proyectos":26,"IE - Nombre":"DEAN VALDIVIA","IE - DRE":"Arequipa","IE - Latitud":-17.016139,"IE - Longitud":-72.012861},{"IE - Codigo modular":"0309211","IE - Nivel":"Secundaria","Cantidad_Proyectos":41,"IE - Nombre":"CLARET","IE - DRE":"Arequipa","IE - Latitud":-16.40216,"IE - Longitud":-71.54154},{"IE - Codigo modular":"0309229","IE - Nivel":"Secundaria","Cantidad_Proyectos":31,"IE - Nombre":"INDEPENDENCIA AMERICANA","IE - DRE":"Arequipa","IE - Latitud":-16.40821,"IE - Longitud":-71.53191},{"IE - Codigo modular":"0309237","IE - Nivel":"Secundaria","Cantidad_Proyectos":53,"IE - Nombre":"SEBASTIAN BARRANCA","IE - DRE":"Arequipa","IE - Latitud":-16.62464,"IE - Longitud":-72.714953},{"IE - Codigo modular":"0309245","IE - Nivel":"Secundaria","Cantidad_Proyectos":40,"IE - Nombre":"LIBERTADOR CASTILLA","IE - DRE":"Arequipa","IE - Latitud":-16.0766,"IE - Longitud":-72.4902},{"IE - Codigo modular":"0309252","IE - Nivel":"Secundaria","Cantidad_Proyectos":15,"IE - Nombre":"MILITAR FRANCISCO BOLOGNESI","IE - DRE":"Arequipa","IE - Latitud":-16.3852,"IE - Longitud":-71.5317},{"IE - Codigo modular":"0309260","IE - Nivel":"Secundaria","Cantidad_Proyectos":16,"IE - Nombre":"HONORIO DELGADO ESPINOZA","IE - DRE":"Arequipa","IE - Latitud":-16.3874,"IE - Longitud":-71.5489},{"IE - Codigo modular":"0309286","IE - Nivel":"Secundaria","Cantidad_Proyectos":30,"IE - Nombre":"SAN LUIS GONZAGA","IE - DRE":"Arequipa","IE - Latitud":-15.843025,"IE - Longitud":-72.649414},{"IE - Codigo modular":"0309294","IE - Nivel":"Secundaria","Cantidad_Proyectos":44,"IE - Nombre":"MARISCAL ORBEGOSO","IE - DRE":"Arequipa","IE - Latitud":-15.210821,"IE - Longitud":-72.8933},{"IE - Codigo modular":"0309302","IE - Nivel":"Secundaria","Cantidad_Proyectos":28,"IE - Nombre":"JUANA CERVANTES DE BOLOGNESI","IE - DRE":"Arequipa","IE - Latitud":-16.40586,"IE - Longitud":-71.54491},{"IE - Codigo modular":"0309310","IE - Nivel":"Secundaria","Cantidad_Proyectos":13,"IE - Nombre":"NUESTRA SRA. DE LOS DOLORES","IE - DRE":"Arequipa","IE - Latitud":-16.376657,"IE - Longitud":-71.560921},{"IE - Codigo modular":"0309328","IE - Nivel":"Secundaria","Cantidad_Proyectos":36,"IE - Nombre":"SAN VICENTE DE PAUL","IE - DRE":"Arequipa","IE - Latitud":-17.020886,"IE - Longitud":-72.015172},{"IE - Codigo modular":"0309336","IE - Nivel":"Secundaria","Cantidad_Proyectos":18,"IE - Nombre":"ANDREA VALDIVIESO DE MELGAR","IE - DRE":"Arequipa","IE - Latitud":-16.40403,"IE - Longitud":-71.50735},{"IE - Codigo modular":"0309344","IE - Nivel":"Secundaria","Cantidad_Proyectos":24,"IE - Nombre":"PADRE DAMIAN DE LOS SAGRADOS CORAZONES","IE - DRE":"Arequipa","IE - Latitud":-16.404478,"IE - Longitud":-71.536779},{"IE - Codigo modular":"0309351","IE - Nivel":"Secundaria","Cantidad_Proyectos":53,"IE - Nombre":"NUESTRA SEÑORA DE LA CANDELARIA","IE - DRE":"Arequipa","IE - Latitud":-16.601635,"IE - Longitud":-72.702735},{"IE - Codigo modular":"0309377","IE - Nivel":"Secundaria","Cantidad_Proyectos":17,"IE - Nombre":"MICAELA BASTIDAS","IE - DRE":"Arequipa","IE - Latitud":-16.396228,"IE - Longitud":-71.530154},{"IE - Codigo modular":"0309385","IE - Nivel":"Secundaria","Cantidad_Proyectos":43,"IE - Nombre":"NUESTRA SEÑORA DE LA ASUNCION","IE - DRE":"Arequipa","IE - Latitud":-16.42024,"IE - Longitud":-71.50525},{"IE - Codigo modular":"0309401","IE - Nivel":"Secundaria","Cantidad_Proyectos":7,"IE - Nombre":"MAYTA CAPAC","IE - DRE":"Arequipa","IE - Latitud":-16.3782,"IE - Longitud":-71.544375},{"IE - Codigo modular":"0309419","IE - Nivel":"Secundaria","Cantidad_Proyectos":32,"IE - Nombre":"CORAZON DE MARIA","IE - DRE":"Arequipa","IE - Latitud":-15.843732,"IE - Longitud":-72.651493},{"IE - Codigo modular":"0309435","IE - Nivel":"Secundaria","Cantidad_Proyectos":16,"IE - Nombre":"40054 JUAN DOMINGO ZAMACOLA Y JAUREGUI","IE - DRE":"Arequipa","IE - Latitud":-16.380238,"IE - Longitud":-71.562363},{"IE - Codigo modular":"0309443","IE - Nivel":"Secundaria","Cantidad_Proyectos":26,"IE - Nombre":"ANGEL FRANCISCO ALI GUILLEN","IE - DRE":"Arequipa","IE - Latitud":-16.471728,"IE - Longitud":-71.486887},{"IE - Codigo modular":"0309450","IE - Nivel":"Secundaria","Cantidad_Proyectos":7,"IE - Nombre":"MONSEÑOR LEONIDAS BERNEDO MALAGA","IE - DRE":"Arequipa","IE - Latitud":-16.547386,"IE - Longitud":-71.476296},{"IE - Codigo modular":"0309468","IE - Nivel":"Secundaria","Cantidad_Proyectos":23,"IE - Nombre":"SAN MARTIN DE SOCABAYA","IE - DRE":"Arequipa","IE - Latitud":-16.443905,"IE - Longitud":-71.531138},{"IE - Codigo modular":"0309476","IE - Nivel":"Secundaria","Cantidad_Proyectos":24,"IE - Nombre":"MARIANO E. RIVERO Y USTARIZ","IE - DRE":"Arequipa","IE - Latitud":-17.092314,"IE - Longitud":-71.767878},{"IE - Codigo modular":"0309484","IE - Nivel":"Secundaria","Cantidad_Proyectos":19,"IE - Nombre":"VICTOR MANUEL TORRES CACERES","IE - DRE":"Arequipa","IE - Latitud":-17.168233,"IE - Longitud":-71.790924},{"IE - Codigo modular":"0309492","IE - Nivel":"Secundaria","Cantidad_Proyectos":18,"IE - Nombre":"JUAN PABLO VIZCARDO Y GUZMAN","IE - DRE":"Arequipa","IE - Latitud":-16.446733,"IE - Longitud":-71.5523},{"IE - Codigo modular":"0309500","IE - Nivel":"Secundaria","Cantidad_Proyectos":12,"IE - Nombre":"FRANCISCO MOSTAJO","IE - DRE":"Arequipa","IE - Latitud":-16.4464,"IE - Longitud":-71.58795},{"IE - Codigo modular":"0309518","IE - Nivel":"Secundaria","Cantidad_Proyectos":10,"IE - Nombre":"JOSE TEOBALDO PAREDES VALDEZ","IE - DRE":"Arequipa","IE - Latitud":-16.412236,"IE - Longitud":-71.49881},{"IE - Codigo modular":"0309526","IE - Nivel":"Secundaria","Cantidad_Proyectos":16,"IE - Nombre":"FRANCISCO JAVIER DE LUNA PIZARRO","IE - DRE":"Arequipa","IE - Latitud":-16.38579,"IE - Longitud":-71.51559},{"IE - Codigo modular":"0309534","IE - Nivel":"Secundaria","Cantidad_Proyectos":21,"IE - Nombre":"INDEPENDENCIA DEL PERU","IE - DRE":"Arequipa","IE - Latitud":-15.77298,"IE - Longitud":-73.368301},{"IE - Codigo modular":"0309542","IE - Nivel":"Secundaria","Cantidad_Proyectos":40,"IE - Nombre":"CARLOS W. SUTTON","IE - DRE":"Arequipa","IE - Latitud":-16.423611,"IE - Longitud":-71.819927},{"IE - Codigo modular":"0309559","IE - Nivel":"Secundaria","Cantidad_Proyectos":22,"IE - Nombre":"HIPOLITO SANCHEZ TRUJILLO","IE - DRE":"Arequipa","IE - Latitud":-15.622433,"IE - Longitud":-71.979675},{"IE - Codigo modular":"0309567","IE - Nivel":"Secundaria","Cantidad_Proyectos":41,"IE - Nombre":"FRANCISCO GARCIA CALDERON","IE - DRE":"Arequipa","IE - Latitud":-15.641871,"IE - Longitud":-71.600427},{"IE - Codigo modular":"0309575","IE - Nivel":"Secundaria","Cantidad_Proyectos":27,"IE - Nombre":"MARIANO LINO URQUIETA","IE - DRE":"Moquegua","IE - Latitud":-16.623406,"IE - Longitud":-71.185587},{"IE - Codigo modular":"0309583","IE - Nivel":"Secundaria","Cantidad_Proyectos":34,"IE - Nombre":"HORTENCIA PARDO MANCEBO","IE - DRE":"Arequipa","IE - Latitud":-15.85744,"IE - Longitud":-74.24734},{"IE - Codigo modular":"0309591","IE - Nivel":"Secundaria","Cantidad_Proyectos":29,"IE - Nombre":"NICOLAS DE PIEROLA","IE - DRE":"Arequipa","IE - Latitud":-15.439206,"IE - Longitud":-74.617396},{"IE - Codigo modular":"0309609","IE - Nivel":"Secundaria","Cantidad_Proyectos":47,"IE - Nombre":"MARISCAL DOMINGO NIETO","IE - DRE":"Moquegua","IE - Latitud":-16.674155,"IE - Longitud":-70.972327},{"IE - Codigo modular":"0309633","IE - Nivel":"Secundaria","Cantidad_Proyectos":15,"IE - Nombre":"NUESTRA SEÑORA DE LOURDES","IE - DRE":"Arequipa","IE - Latitud":-16.428617,"IE - Longitud":-71.557917},{"IE - Codigo modular":"0309641","IE - Nivel":"Secundaria","Cantidad_Proyectos":25,"IE - Nombre":"AREQUIPA","IE - DRE":"Arequipa","IE - Latitud":-16.39225,"IE - Longitud":-71.5295},{"IE - Codigo modular":"0309682","IE - Nivel":"Secundaria","Cantidad_Proyectos":9,"IE - Nombre":"40024 MANUEL GONZALES PRADA","IE - DRE":"Arequipa","IE - Latitud":-16.378669,"IE - Longitud":-71.524182},{"IE - Codigo modular":"0309716","IE - Nivel":"Secundaria","Cantidad_Proyectos":36,"IE - Nombre":"MIGUEL GRAU","IE - DRE":"Arequipa","IE - Latitud":-16.224953,"IE - Longitud":-73.61422},{"IE - Codigo modular":"0309724","IE - Nivel":"Secundaria","Cantidad_Proyectos":24,"IE - Nombre":"VICTOR RAUL HAYA DE LA TORRE","IE - DRE":"Arequipa","IE - Latitud":-16.467315,"IE - Longitud":-71.937099},{"IE - Codigo modular":"0309740","IE - Nivel":"Secundaria","Cantidad_Proyectos":20,"IE - Nombre":"40479 MIGUEL GRAU","IE - DRE":"Arequipa","IE - Latitud":-16.999159,"IE - Longitud":-72.098435},{"IE - Codigo modular":"0309757","IE - Nivel":"Secundaria","Cantidad_Proyectos":20,"IE - Nombre":"JOSE MARIA MORANTE","IE - DRE":"Arequipa","IE - Latitud":-16.432241,"IE - Longitud":-73.106516},{"IE - Codigo modular":"0309765","IE - Nivel":"Secundaria","Cantidad_Proyectos":9,"IE - Nombre":"JOSE CARLOS MARIATEGUI","IE - DRE":"Moquegua","IE - Latitud":-16.38776,"IE - Longitud":-70.854184},{"IE - Codigo modular":"0309773","IE - Nivel":"Secundaria","Cantidad_Proyectos":50,"IE - Nombre":"CORONEL BOLOGNESI","IE - DRE":"Tacna","IE - Latitud":-18.00538,"IE - Longitud":-70.25069},{"IE - Codigo modular":"0309781","IE - Nivel":"Secundaria","Cantidad_Proyectos":44,"IE - Nombre":"SIMON BOLIVAR","IE - DRE":"Moquegua","IE - Latitud":-17.187388,"IE - Longitud":-70.931},{"IE - Codigo modular":"0309799","IE - Nivel":"Secundaria","Cantidad_Proyectos":39,"IE - Nombre":"FRANCISCO ANTONIO DE ZELA","IE - DRE":"Tacna","IE - Latitud":-18.005395,"IE - Longitud":-70.239339},{"IE - Codigo modular":"0309807","IE - Nivel":"Secundaria","Cantidad_Proyectos":32,"IE - Nombre":"SANTA FORTUNATA","IE - DRE":"Moquegua","IE - Latitud":-17.193168,"IE - Longitud":-70.911868},{"IE - Codigo modular":"0309815","IE - Nivel":"Secundaria","Cantidad_Proyectos":37,"IE - Nombre":"DANIEL BECERRA OCAMPO","IE - DRE":"Moquegua","IE - Latitud":-17.639805,"IE - Longitud":-71.339291},{"IE - Codigo modular":"0309823","IE - Nivel":"Secundaria","Cantidad_Proyectos":24,"IE - Nombre":"CHAMPAGNAT","IE - DRE":"Tacna","IE - Latitud":-18.01458,"IE - Longitud":-70.247742},{"IE - Codigo modular":"0309831","IE - Nivel":"Secundaria","Cantidad_Proyectos":30,"IE - Nombre":"PARROQUIAL CORAZON DE MARIA","IE - DRE":"Tacna","IE - Latitud":-18.0214,"IE - Longitud":-70.23907},{"IE - Codigo modular":"0309849","IE - Nivel":"Secundaria","Cantidad_Proyectos":39,"IE - Nombre":"MERCEDES CABELLO DE CARBONERA","IE - DRE":"Moquegua","IE - Latitud":-17.632773,"IE - Longitud":-71.338943},{"IE - Codigo modular":"0309856","IE - Nivel":"Secundaria","Cantidad_Proyectos":10,"IE - Nombre":"FEDERICO BARRETO","IE - DRE":"Tacna","IE - Latitud":-17.995751,"IE - Longitud":-70.230948},{"IE - Codigo modular":"0309864","IE - Nivel":"Secundaria","Cantidad_Proyectos":27,"IE - Nombre":"RAMON COPAJA","IE - DRE":"Tacna","IE - Latitud":-17.47636,"IE - Longitud":-70.03025},{"IE - Codigo modular":"0309872","IE - Nivel":"Secundaria","Cantidad_Proyectos":4,"IE - Nombre":"HORACIO ZEBALLOS GAMEZ","IE - DRE":"Moquegua","IE - Latitud":-16.808391,"IE - Longitud":-70.695883},{"IE - Codigo modular":"0309880","IE - Nivel":"Secundaria","Cantidad_Proyectos":17,"IE - Nombre":"NUESTRO SEÑOR DE LOCUMBA","IE - DRE":"Tacna","IE - Latitud":-17.614753,"IE - Longitud":-70.76196},{"IE - Codigo modular":"0309898","IE - Nivel":"Secundaria","Cantidad_Proyectos":7,"IE - Nombre":"MANUEL FLORES CALVO","IE - DRE":"Tacna","IE - Latitud":-17.99466,"IE - Longitud":-70.21854},{"IE - Codigo modular":"0309914","IE - Nivel":"Secundaria","Cantidad_Proyectos":32,"IE - Nombre":"SAN JERONIMO","IE - DRE":"Arequipa","IE - Latitud":-16.408,"IE - Longitud":-71.549},{"IE - Codigo modular":"0309922","IE - Nivel":"Secundaria","Cantidad_Proyectos":25,"IE - Nombre":"SAN FRANCISCO DE ASIS","IE - DRE":"Arequipa","IE - Latitud":-17.024965,"IE - Longitud":-72.002763},{"IE - Codigo modular":"0309955","IE - Nivel":"Secundaria","Cantidad_Proyectos":1,"IE - Nombre":"DE LA SALLE","IE - DRE":"Arequipa","IE - Latitud":-16.4004,"IE - Longitud":-71.52506},{"IE - Codigo modular":"0309989","IE - Nivel":"Secundaria","Cantidad_Proyectos":28,"IE - Nombre":"SALESIANOS DON BOSCO","IE - DRE":"Arequipa","IE - Latitud":-16.39716,"IE - Longitud":-71.52859},{"IE - Codigo modular":"0309997","IE - Nivel":"Secundaria","Cantidad_Proyectos":44,"IE - Nombre":"SAN FRANCISCO DE ASIS","IE - DRE":"Arequipa","IE - Latitud":-16.38125,"IE - Longitud":-71.539879},{"IE - Codigo modular":"0310037","IE - Nivel":"Secundaria","Cantidad_Proyectos":3,"IE - Nombre":"ESCLAVAS DEL SAGRADO CORAZON DE JESUS","IE - DRE":"Arequipa","IE - Latitud":-16.40389,"IE - Longitud":-71.55092},{"IE - Codigo modular":"0310045","IE - Nivel":"Secundaria","Cantidad_Proyectos":18,"IE - Nombre":"MARIA AUXILIADORA","IE - DRE":"Arequipa","IE - Latitud":-17.024688,"IE - Longitud":-72.014236},{"IE - Codigo modular":"0310052","IE - Nivel":"Secundaria","Cantidad_Proyectos":4,"IE - Nombre":"NUESTRA SEÑORA DEL ROSARIO","IE - DRE":"Arequipa","IE - Latitud":-16.40364,"IE - Longitud":-71.53111},{"IE - Codigo modular":"0310110","IE - Nivel":"Secundaria","Cantidad_Proyectos":2,"IE - Nombre":"MARIA MONTESSORI","IE - DRE":"Arequipa","IE - Latitud":-16.3994,"IE - Longitud":-71.523},{"IE - Codigo modular":"0310128","IE - Nivel":"Secundaria","Cantidad_Proyectos":9,"IE - Nombre":"NUESTRA SRA. DE LA MERCED","IE - DRE":"Arequipa","IE - Latitud":-16.389761,"IE - Longitud":-71.54024},{"IE - Codigo modular":"0310136","IE - Nivel":"Secundaria","Cantidad_Proyectos":22,"IE - Nombre":"SANTA ROSA DE VITERBO","IE - DRE":"Arequipa","IE - Latitud":-16.3965,"IE - Longitud":-71.54371},{"IE - Codigo modular":"0310144","IE - Nivel":"Secundaria","Cantidad_Proyectos":7,"IE - Nombre":"SAGRADO CORAZON","IE - DRE":"Arequipa","IE - Latitud":-16.3704,"IE - Longitud":-71.55944},{"IE - Codigo modular":"0310151","IE - Nivel":"Secundaria","Cantidad_Proyectos":41,"IE - Nombre":"INTERNACIONAL PERUANO BRITANICO","IE - DRE":"Arequipa","IE - Latitud":-16.3967,"IE - Longitud":-71.548772},{"IE - Codigo modular":"0310169","IE - Nivel":"Secundaria","Cantidad_Proyectos":10,"IE - Nombre":"FRANCISCO LOPEZ DE ROMAÑA","IE - DRE":"Arequipa","IE - Latitud":-17.136734,"IE - Longitud":-71.818084},{"IE - Codigo modular":"0310185","IE - Nivel":"Secundaria","Cantidad_Proyectos":12,"IE - Nombre":"JESUS NAZARENO","IE - DRE":"Arequipa","IE - Latitud":-16.432678,"IE - Longitud":-71.503353},{"IE - Codigo modular":"0310201","IE - Nivel":"Secundaria","Cantidad_Proyectos":11,"IE - Nombre":"COLEGIO ANGLO AMERICANO PRESCOTT","IE - DRE":"Arequipa","IE - Latitud":-16.4288,"IE - Longitud":-71.560733},{"IE - Codigo modular":"0310219","IE - Nivel":"Secundaria","Cantidad_Proyectos":16,"IE - Nombre":"COLEGIO PARTICULAR MIXTO SANTA CLARA","IE - DRE":"Arequipa","IE - Latitud":-16.43292,"IE - Longitud":-71.53283},{"IE - Codigo modular":"0310227","IE - Nivel":"Secundaria","Cantidad_Proyectos":39,"IE - Nombre":"CRISTO REY","IE - DRE":"Tacna","IE - Latitud":-18.0307,"IE - Longitud":-70.2713},{"IE - Codigo modular":"0310243","IE - Nivel":"Secundaria","Cantidad_Proyectos":33,"IE - Nombre":"SAN LUIS","IE - DRE":"Moquegua","IE - Latitud":-17.633311,"IE - Longitud":-71.340252},{"IE - Codigo modular":"0310250","IE - Nivel":"Secundaria","Cantidad_Proyectos":43,"IE - Nombre":"FISCALIZADO TOQUEPALA","IE - DRE":"Tacna","IE - Latitud":-17.286531,"IE - Longitud":-70.637811},{"IE - Codigo modular":"0310417","IE - Nivel":"Secundaria","Cantidad_Proyectos":33,"IE - Nombre":"FAUSTINO B. FRANCO","IE - DRE":"Arequipa","IE - Latitud":-16.600303,"IE - Longitud":-72.70322},{"IE - Codigo modular":"0310425","IE - Nivel":"Secundaria","Cantidad_Proyectos":35,"IE - Nombre":"CORIRE","IE - DRE":"Arequipa","IE - Latitud":-16.221537,"IE - Longitud":-72.472888},{"IE - Codigo modular":"0310433","IE - Nivel":"Secundaria","Cantidad_Proyectos":48,"IE - Nombre":"GLORIOSO JUAN PABLO VISCARDO Y GUZMAN","IE - DRE":"Arequipa","IE - Latitud":-15.717396,"IE - Longitud":-72.570568},{"IE - Codigo modular":"0310441","IE - Nivel":"Secundaria","Cantidad_Proyectos":23,"IE - Nombre":"40205 MANUEL BENITO LINARES A.","IE - DRE":"Arequipa","IE - Latitud":-16.440691,"IE - Longitud":-71.530526},{"IE - Codigo modular":"0310466","IE - Nivel":"Secundaria","Cantidad_Proyectos":38,"IE - Nombre":"NUESTRA SEÑORA DE FATIMA","IE - DRE":"Arequipa","IE - Latitud":-16.4048,"IE - Longitud":-71.547911},{"IE - Codigo modular":"0310490","IE - Nivel":"Secundaria","Cantidad_Proyectos":1,"IE - Nombre":"TECNICO AGROPECUARIO DE MOQUEGUA","IE - DRE":"Moquegua","IE - Latitud":-17.196258,"IE - Longitud":-70.960459},{"IE - Codigo modular":"0310516","IE - Nivel":"Secundaria","Cantidad_Proyectos":15,"IE - Nombre":"MODESTO BASADRE","IE - DRE":"Tacna","IE - Latitud":-18.00513,"IE - Longitud":-70.25674},{"IE - Codigo modular":"0310565","IE - Nivel":"Secundaria","Cantidad_Proyectos":11,"IE - Nombre":"CARLOS A. VELASQUEZ","IE - DRE":"Moquegua","IE - Latitud":-17.63566,"IE - Longitud":-71.32708},{"IE - Codigo modular":"0314401","IE - Nivel":"Secundaria","Cantidad_Proyectos":16,"IE - Nombre":"REINA DE LAS AMERICAS","IE - DRE":"Lima Metropolitana","IE - Latitud":-12.08136,"IE - Longitud":-77.02213},{"IE - Codigo modular":"0314468","IE - Nivel":"Secundaria","Cantidad_Proyectos":6,"IE - Nombre":"SAN NORBERTO","IE - DRE":"Lima Metropolitana","IE - Latitud":-12.08522,"IE - Longitud":-77.01884},{"IE - Codigo modular":"0314567","IE - Nivel":"Secundaria","Cantidad_Proyectos":1,"IE - Nombre":"SANTA ROSA","IE - DRE":"Lima Metropolitana","IE - Latitud":-11.93658,"IE - Longitud":-76.69814},{"IE - Codigo modular":"0322479","IE - Nivel":"Secundaria","Cantidad_Proyectos":15,"IE - Nombre":"7064 MARIA AUXILIADORA","IE - DRE":"Lima Metropolitana","IE - Latitud":-12.18774,"IE - Longitud":-77.00494},{"IE - Codigo modular":"0323345","IE - Nivel":"Secundaria","Cantidad_Proyectos":32,"IE - Nombre":"7014 VASIL LEVSKI","IE - DRE":"Lima Metropolitana","IE - Latitud":-12.12184,"IE - Longitud":-77.00317},{"IE - Codigo modular":"0323675","IE - Nivel":"Secundaria","Cantidad_Proyectos":11,"IE - Nombre":"DIVINO MAESTRO","IE - DRE":"Lima Metropolitana","IE - Latitud":-12.20767,"IE - Longitud":-77.0148},{"IE - Codigo modular":"0324772","IE - Nivel":"Secundaria","Cantidad_Proyectos":7,"IE - Nombre":"7050 NICANOR RIVERA CACERES","IE - DRE":"Lima Metropolitana","IE - Latitud":-12.14295,"IE - Longitud":-77.02031},{"IE - Codigo modular":"0325449","IE - Nivel":"Secundaria","Cantidad_Proyectos":15,"IE - Nombre":"JOSE DE LA RIVA AGUERO Y OSMA","IE - DRE":"Lima Metropolitana","IE - Latitud":-12.16639,"IE - Longitud":-77.0215},{"IE - Codigo modular":"0325456","IE - Nivel":"Secundaria","Cantidad_Proyectos":32,"IE - Nombre":"6052 JOSE MARIA EGUREN","IE - DRE":"Lima Metropolitana","IE - Latitud":-12.15164,"IE - Longitud":-77.01797},{"IE - Codigo modular":"0325464","IE - Nivel":"Secundaria","Cantidad_Proyectos":26,"IE - Nombre":"6049 RICARDO PALMA","IE - DRE":"Lima Metropolitana","IE - Latitud":-12.11269,"IE - Longitud":-77.01598},{"IE - Codigo modular":"0325472","IE - Nivel":"Secundaria","Cantidad_Proyectos":30,"IE - Nombre":"6050 JUANA ALARCO DE DAMMERT","IE - DRE":"Lima Metropolitana","IE - Latitud":-12.12709,"IE - Longitud":-77.00859},{"IE - Codigo modular":"0325480","IE - Nivel":"Secundaria","Cantidad_Proyectos":20,"IE - Nombre":"6051 MERCEDES INDACOCHEA","IE - DRE":"Lima Metropolitana","IE - Latitud":-12.15446,"IE - Longitud":-77.01962},{"IE - Codigo modular":"0325498","IE - Nivel":"Secundaria","Cantidad_Proyectos":30,"IE - Nombre":"SAN JUAN","IE - DRE":"Lima Metropolitana","IE - Latitud":-12.16058,"IE - Longitud":-76.96679},{"IE - Codigo modular":"0325506","IE - Nivel":"Secundaria","Cantidad_Proyectos":5,"IE - Nombre":"ENRIQUE ARNAEZ NAVEDA","IE - DRE":"Lima Metropolitana","IE - Latitud":-12.14908,"IE - Longitud":-77.01884},{"IE - Codigo modular":"0325548","IE - Nivel":"Secundaria","Cantidad_Proyectos":19,"IE - Nombre":"6085 BRIGIDA SILVA DE OCHOA","IE - DRE":"Lima Metropolitana","IE - Latitud":-12.164653,"IE - Longitud":-77.020892},{"IE - Codigo modular":"0325555","IE - Nivel":"Secundaria","Cantidad_Proyectos":24,"IE - Nombre":"NUESTRA SEÑORA DE LOURDES","IE - DRE":"Lima Metropolitana","IE - Latitud":-12.112408,"IE - Longitud":-77.009087},{"IE - Codigo modular":"0325571","IE - Nivel":"Secundaria","Cantidad_Proyectos":14,"IE - Nombre":"COLEGIO PARROQUIAL SANTA ROSA","IE - DRE":"Lima Metropolitana","IE - Latitud":-12.14121,"IE - Longitud":-77.02453},{"IE - Codigo modular":"0325589","IE - Nivel":"Secundaria","Cantidad_Proyectos":28,"IE - Nombre":"MARISCAL ELOY GASPAR URETA","IE - DRE":"Lima Metropolitana","IE - Latitud":-12.17868,"IE - Longitud":-76.94059},{"IE - Codigo modular":"0325597","IE - Nivel":"Secundaria","Cantidad_Proyectos":25,"IE - Nombre":"ISAIAS ARDILES","IE - DRE":"Lima Metropolitana","IE - Latitud":-12.22935,"IE - Longitud":-76.85761},{"IE - Codigo modular":"0325605","IE - Nivel":"Secundaria","Cantidad_Proyectos":25,"IE - Nombre":"JOSE CARLOS MARIATEGUI","IE - DRE":"Lima Metropolitana","IE - Latitud":-12.15161,"IE - Longitud":-76.95205},{"IE - Codigo modular":"0325613","IE - Nivel":"Secundaria","Cantidad_Proyectos":42,"IE - Nombre":"JOSE FAUSTINO SANCHEZ CARRION","IE - DRE":"Lima Metropolitana","IE - Latitud":-12.277363,"IE - Longitud":-76.867638},{"IE - Codigo modular":"0325621","IE - Nivel":"Secundaria","Cantidad_Proyectos":36,"IE - Nombre":"6044 JORGE CHAVEZ","IE - DRE":"Lima Metropolitana","IE - Latitud":-12.14332,"IE - Longitud":-77.00457},{"IE - Codigo modular":"0325639","IE - Nivel":"Secundaria","Cantidad_Proyectos":9,"IE - Nombre":"CAPITAN FAP JOSE ABELARDO QUIÑONES","IE - DRE":"Lima Metropolitana","IE - Latitud":-12.06783,"IE - Longitud":-76.97001},{"IE - Codigo modular":"0325647","IE - Nivel":"Secundaria","Cantidad_Proyectos":5,"IE - Nombre":"JUAN GUERRERO QUIMPER","IE - DRE":"Lima Metropolitana","IE - Latitud":-12.21146,"IE - Longitud":-76.90931},{"IE - Codigo modular":"0325654","IE - Nivel":"Secundaria","Cantidad_Proyectos":11,"IE - Nombre":"MANUEL CALVO Y PEREZ","IE - DRE":"Lima Metropolitana","IE - Latitud":-12.49239,"IE - Longitud":-76.78787},{"IE - Codigo modular":"0325662","IE - Nivel":"Secundaria","Cantidad_Proyectos":11,"IE - Nombre":"TECNICO FAP MANUEL POLO JIMENEZ","IE - DRE":"Lima Metropolitana","IE - Latitud":-12.14583,"IE - Longitud":-77.01345},{"IE - Codigo modular":"0325670","IE - Nivel":"Secundaria","Cantidad_Proyectos":24,"IE - Nombre":"6069 PACHACUTEC","IE - DRE":"Lima Metropolitana","IE - Latitud":-12.21846,"IE - Longitud":-76.93606},{"IE - Codigo modular":"0325696","IE - Nivel":"Secundaria","Cantidad_Proyectos":17,"IE - Nombre":"7008 SCIPION E. LLONA","IE - DRE":"Lima Metropolitana","IE - Latitud":-12.11748,"IE - Longitud":-77.04146},{"IE - Codigo modular":"0325704","IE - Nivel":"Secundaria","Cantidad_Proyectos":41,"IE - Nombre":"TUPAC AMARU","IE - DRE":"Lima Metropolitana","IE - Latitud":-12.167058,"IE - Longitud":-76.952204},{"IE - Codigo modular":"0325712","IE - Nivel":"Secundaria","Cantidad_Proyectos":31,"IE - Nombre":"VICTOR MORON MUÑOZ","IE - DRE":"Lima Metropolitana","IE - Latitud":-12.38913,"IE - Longitud":-76.77495},{"IE - Codigo modular":"0327379","IE - Nivel":"Secundaria","Cantidad_Proyectos":23,"IE - Nombre":"EL TRIUNFO","IE - DRE":"Tumbes","IE - Latitud":-3.559277,"IE - Longitud":-80.456954},{"IE - Codigo modular":"0327387","IE - Nivel":"Secundaria","Cantidad_Proyectos":25,"IE - Nombre":"INMACULADA CONCEPCION","IE - DRE":"Tumbes","IE - Latitud":-3.558716,"IE - Longitud":-80.455961},{"IE - Codigo modular":"0327395","IE - Nivel":"Secundaria","Cantidad_Proyectos":21,"IE - Nombre":"TECNICO 7 DE ENERO","IE - DRE":"Tumbes","IE - Latitud":-3.60523,"IE - Longitud":-80.4802},{"IE - Codigo modular":"0327403","IE - Nivel":"Secundaria","Cantidad_Proyectos":11,"IE - Nombre":"CONTRALMIRANTE VILLAR","IE - DRE":"Tumbes","IE - Latitud":-3.681,"IE - Longitud":-80.6811},{"IE - Codigo modular":"0327411","IE - Nivel":"Secundaria","Cantidad_Proyectos":11,"IE - Nombre":"CIRO ALEGRIA BAZAN","IE - DRE":"Tumbes","IE - Latitud":-3.9391,"IE - Longitud":-80.6521},{"IE - Codigo modular":"0327429","IE - Nivel":"Secundaria","Cantidad_Proyectos":41,"IE - Nombre":"ZARUMILLA","IE - DRE":"Tumbes","IE - Latitud":-3.503391,"IE - Longitud":-80.279154},{"IE - Codigo modular":"0327460","IE - Nivel":"Secundaria","Cantidad_Proyectos":36,"IE - Nombre":"ANDRES ARAUJO","IE - DRE":"Tumbes","IE - Latitud":-3.6366,"IE - Longitud":-80.5816},{"IE - Codigo modular":"0327486","IE - Nivel":"Secundaria","Cantidad_Proyectos":4,"IE - Nombre":"TUPAC AMARU","IE - DRE":"Tumbes","IE - Latitud":-3.583598,"IE - Longitud":-80.450545},{"IE - Codigo modular":"0327650","IE - Nivel":"Secundaria","Cantidad_Proyectos":22,"IE - Nombre":"SAN PEDRO DE CHORRILLOS","IE - DRE":"Lima Metropolitana","IE - Latitud":-12.17363,"IE - Longitud":-77.0056},{"IE - Codigo modular":"0329151","IE - Nivel":"Secundaria","Cantidad_Proyectos":2,"IE - Nombre":"NIÑO JESUS DE BELEN","IE - DRE":"Lima Metropolitana","IE - Latitud":-12.17047,"IE - Longitud":-77.02178},{"IE - Codigo modular":"0329201","IE - Nivel":"Secundaria","Cantidad_Proyectos":4,"IE - Nombre":"SAN JOSE DE CLUNY - BARRANCO","IE - DRE":"Lima Metropolitana","IE - Latitud":-12.14443,"IE - Longitud":-77.02098},{"IE - Codigo modular":"0329243","IE - Nivel":"Secundaria","Cantidad_Proyectos":16,"IE - Nombre":"SANTA ROSA DE LIMA","IE - DRE":"Lima Metropolitana","IE - Latitud":-12.19957,"IE - Longitud":-76.94444},{"IE - Codigo modular":"0329326","IE - Nivel":"Secundaria","Cantidad_Proyectos":16,"IE - Nombre":"FE Y ALEGRIA 3","IE - DRE":"Lima Metropolitana","IE - Latitud":-12.14995,"IE - Longitud":-76.96923},{"IE - Codigo modular":"0329441","IE - Nivel":"Secundaria","Cantidad_Proyectos":8,"IE - Nombre":"MANUEL ANTONIO RAMIREZ BARINAGA","IE - DRE":"Lima Metropolitana","IE - Latitud":-12.15903,"IE - Longitud":-76.97303},{"IE - Codigo modular":"0329532","IE - Nivel":"Secundaria","Cantidad_Proyectos":1,"IE - Nombre":"SAN JOSE DE MONTERRICO","IE - DRE":"Lima Metropolitana","IE - Latitud":-12.10991,"IE - Longitud":-76.96776},{"IE - Codigo modular":"0329557","IE - Nivel":"Secundaria","Cantidad_Proyectos":6,"IE - Nombre":"SAN ROQUE","IE - DRE":"Lima Metropolitana","IE - Latitud":-12.14834,"IE - Longitud":-76.98878},{"IE - Codigo modular":"0329573","IE - Nivel":"Secundaria","Cantidad_Proyectos":23,"IE - Nombre":"6152 STELLA MARIS","IE - DRE":"Lima Metropolitana","IE - Latitud":-12.203396,"IE - Longitud":-76.926378},{"IE - Codigo modular":"0329755","IE - Nivel":"Secundaria","Cantidad_Proyectos":4,"IE - Nombre":"JULIO CESAR ESCOBAR","IE - DRE":"Lima Metropolitana","IE - Latitud":-12.16274,"IE - Longitud":-76.9744},{"IE - Codigo modular":"0329805","IE - Nivel":"Secundaria","Cantidad_Proyectos":32,"IE - Nombre":"LA DIVINA PROVIDENCIA","IE - DRE":"Lima Metropolitana","IE - Latitud":-12.11229,"IE - Longitud":-77.00615},{"IE - Codigo modular":"0329813","IE - Nivel":"Secundaria","Cantidad_Proyectos":15,"IE - Nombre":"6053 SAGRADO CORAZON","IE - DRE":"Lima Metropolitana","IE - Latitud":-12.1609,"IE - Longitud":-77.02362},{"IE - Codigo modular":"0330464","IE - Nivel":"Secundaria","Cantidad_Proyectos":3,"IE - Nombre":"7049 CAP. FAP JOSE A. QUIÑONES GONZALES","IE - DRE":"Lima Metropolitana","IE - Latitud":-12.14456,"IE - Longitud":-77.01443},{"IE - Codigo modular":"0334649","IE - Nivel":"Secundaria","Cantidad_Proyectos":29,"IE - Nombre":"BARTOLOME HERRERA","IE - DRE":"Lima Metropolitana","IE - Latitud":-12.080887,"IE - Longitud":-77.074082},{"IE - Codigo modular":"0334656","IE - Nivel":"Secundaria","Cantidad_Proyectos":26,"IE - Nombre":"0040 HIPOLITO UNANUE","IE - DRE":"Lima Metropolitana","IE - Latitud":-12.05265,"IE - Longitud":-77.0704},{"IE - Codigo modular":"0334664","IE - Nivel":"Secundaria","Cantidad_Proyectos":48,"IE - Nombre":"MARIANO MELGAR","IE - DRE":"Lima Metropolitana","IE - Latitud":-12.0599,"IE - Longitud":-77.05371},{"IE - Codigo modular":"0334672","IE - Nivel":"Secundaria","Cantidad_Proyectos":4,"IE - Nombre":"NICOLAS DE PIEROLA","IE - DRE":"Lima Metropolitana","IE - Latitud":-12.05079,"IE - Longitud":-77.0107},{"IE - Codigo modular":"0334680","IE - Nivel":"Secundaria","Cantidad_Proyectos":10,"IE - Nombre":"PEDRO GALVEZ EGUSQUIZA","IE - DRE":"Lima Metropolitana","IE - Latitud":-12.06429,"IE - Longitud":-77.06796},{"IE - Codigo modular":"0334706","IE - Nivel":"Secundaria","Cantidad_Proyectos":36,"IE - Nombre":"MERCEDES CABELLO DE CARBONERA","IE - DRE":"Lima Metropolitana","IE - Latitud":-12.0262,"IE - Longitud":-77.0464},{"IE - Codigo modular":"0334714","IE - Nivel":"Secundaria","Cantidad_Proyectos":12,"IE - Nombre":"MICAELA BASTIDAS","IE - DRE":"Lima Metropolitana","IE - Latitud":-12.06162,"IE - Longitud":-77.05248},{"IE - Codigo modular":"0334722","IE - Nivel":"Secundaria","Cantidad_Proyectos":28,"IE - Nombre":"0005 ROSA DE SANTA MARIA","IE - DRE":"Lima Metropolitana","IE - Latitud":-12.053427,"IE - Longitud":-77.045407},{"IE - Codigo modular":"0334730","IE - Nivel":"Secundaria","Cantidad_Proyectos":14,"IE - Nombre":"PNP CAP. ALIPIO PONCE VASQUEZ","IE - DRE":"Lima Metropolitana","IE - Latitud":-12.050325,"IE - Longitud":-77.012703},{"IE - Codigo modular":"0334748","IE - Nivel":"Secundaria","Cantidad_Proyectos":13,"IE - Nombre":"PNP TUPAC AMARU","IE - DRE":"Lima Metropolitana","IE - Latitud":-12.04982,"IE - Longitud":-77.01277},{"IE - Codigo modular":"0334771","IE - Nivel":"Secundaria","Cantidad_Proyectos":14,"IE - Nombre":"JOSE SANTOS CHOCANO","IE - DRE":"Lima Metropolitana","IE - Latitud":-12.08037,"IE - Longitud":-77.06285},{"IE - Codigo modular":"0336495","IE - Nivel":"Secundaria","Cantidad_Proyectos":47,"IE - Nombre":"NUESTRA SEÑORA DE GUADALUPE","IE - DRE":"Lima Metropolitana","IE - Latitud":-12.05502,"IE - Longitud":-77.04175},{"IE - Codigo modular":"0336511","IE - Nivel":"Secundaria","Cantidad_Proyectos":6,"IE - Nombre":"105 PEDRO CORONADO ARRASCUE","IE - DRE":"Lima Metropolitana","IE - Latitud":-12.04086,"IE - Longitud":-77.0443},{"IE - Codigo modular":"0336537","IE - Nivel":"Secundaria","Cantidad_Proyectos":11,"IE - Nombre":"NUESTRA SEÑORA DE MONTSERRAT","IE - DRE":"Lima Metropolitana","IE - Latitud":-12.04277,"IE - Longitud":-77.03447},{"IE - Codigo modular":"0336545","IE - Nivel":"Secundaria","Cantidad_Proyectos":37,"IE - Nombre":"VIRGO POTENS","IE - DRE":"Lima Metropolitana","IE - Latitud":-12.055,"IE - Longitud":-77.01568},{"IE - Codigo modular":"0336560","IE - Nivel":"Secundaria","Cantidad_Proyectos":16,"IE - Nombre":"1148 JUANA INFANTES VERA","IE - DRE":"Lima Metropolitana","IE - Latitud":-12.05351,"IE - Longitud":-77.08315},{"IE - Codigo modular":"0336578","IE - Nivel":"Secundaria","Cantidad_Proyectos":7,"IE - Nombre":"1178 JAVIER HERAUD","IE - DRE":"Lima Metropolitana","IE - Latitud":-12.028,"IE - Longitud":-77.0139},